RC	UFI	UNI	LAT	LONG	DMS_LAT	DMS_LONG	MGRS	JOG	FC	DSG	PC	CC1	ADM1	POP	ELEV	CC2	NT	LC	SHORT_FORM	GENERIC	SORT_NAME_RO	FULL_NAME_RO	FULL_NAME_ND_RO	SORT_NAME_RG	FULL_NAME_RG	FULL_NAME_ND_RG	NOTE	MODIFY_DATE	DISPLAY	NAME_RANK	NAME_LINK	TRANSL_CD	NM_MODIFY_DATE	F_EFCTV_DT	F_TERM_DT
3	-1336881	-1929235	12.075955	2.523499	12:04:33N	2:31:25E	31PDP4814334998	ND31-14	L	PRK		BN,NG,UV				BN,NG,UV	N			Parc National	PARCNATIONALDUWDUNIGER	Parc National du W du Niger	Parc National du W du Niger	WDUNIGER PARCNATIONALDU	W du Niger, Parc National du	W du Niger, Parc National du		2012-09-19	1,2,3,4,5	1			2012-09-19		
3	-1100060	-1627965	15	14	15:00:00N	14:00:00E	33PUS9248858569	ND33-02	L	AREA		CD,NG				CD,NG	N				MANGA	Manga	Manga	MANGA	Manga	Manga		2013-02-05	1,2,3,4,5	1			2013-02-15		
3	-3147563	-4441507	16	16	16:00:00N	16:00:00E	33QXT0699669193	NE33-15	L	BSND		CM	00			NG	N				BASSINDULACTCHAD	Bassin du Lac Tchad	Bassin du Lac Tchad	BASSINDULACTCHAD	Bassin du Lac Tchad	Bassin du Lac Tchad		1994-03-29	1,2,3,4,5				1993-09-01		
3	-1103332	-1631994	17	2	17:00:00N	2:00:00E	31QCU9355279827	NE31-10	L	RGN		CD	00			NG	N				SAHEL	Sahel	Sahel	SAHEL	Sahel	Sahel		1994-04-07	1,2,3,4,5				1993-09-01		
3	-1085447	-1609685	17	2	17:00:00N	2:00:00E	31QCU9355279827	NE31-10	L	RGN		NG	00			NG	N				SAHEL	Sahel	Sahel	SAHEL	Sahel	Sahel		1994-03-29	1,2,3,4,5				1993-09-01		
3	-1079003	-1600931	16	16	16:00:00N	16:00:00E	33QXT0699669193	NE33-15	L	BSND		NG	00			NG	N				BASSINDULACTCHAD	Bassin du Lac Tchad	Bassin du Lac Tchad	BASSINDULACTCHAD	Bassin du Lac Tchad	Bassin du Lac Tchad		1994-04-07	1,2,3,4,5				1993-09-01		
1	10085365	10300077	15.1256	1.1188	15:07:32N	1:07:08E	31PBS9784473084	ND31-01	L	AREA		ML	00			NG	N				IGILIMAMA	Igilimama	Igilimama	IGILIMAMA	Igilimama	Igilimama		2008-01-30	1,2,3,4				2008-01-30		
3	10470172	11003534	22.983629	13.791661	22:59:01N	13:47:30E	33QUF7614642218	NF33-06	L	AREA		LY,NG				NG	N				DJEBELATI	Djebel Ati	Djebel Ati	DJEBELATI	Djebel Ati	Djebel Ati		2016-08-11	1,2,3,4	1			2016-08-11		
3	-1100060	-1627973	15	14	15:00:00N	14:00:00E	33PUS9248858569	ND33-02	L	AREA		CD,NG					V				PLATEAUDUMANGA	Plateau du Manga	Plateau du Manga	MANGA PLATEAUDU	Manga, Plateau du	Manga, Plateau du		2013-02-05	1,2,3,4,5				1993-09-01		
3	10470172	11008215	22.983629	13.791661	22:59:01N	13:47:30E	33QUF7614642218	NF33-06	L	AREA		LY,NG				LY	N				JABALATI	Jabal Ati	Jabal Ati	JABALATI	Jabal Ati	Jabal Ati		2016-08-11	1,2,3,4				2016-08-11		
1	10603855	11269417	23.152548	11.835852	23:09:09N	11:50:09E	32QQL9037763234	NF32-04	L	AREA		NG	01				N	fra			OUARTADJEDJET	Ouar Tadjedjet	Ouar Tadjedjet	OUARTADJEDJET	Ouar Tadjedjet	Ouar Tadjedjet		2009-10-09	1,2,3,4	1			2009-10-09		
1	10595170	11250411	22.829297	11.812412	22:49:45N	11:48:45E	32QQL8866327373	NF32-08	L	AREA		NG	01				N				OUARTADJEDJET	Ouar Tadjedjet	Ouar Tadjedjet	OUARTADJEDJET	Ouar Tadjedjet	Ouar Tadjedjet		2009-09-22	1,2,3,4	1			2009-09-22		
1	-1082852	10697090	14.366667	6.233333	14:22:00N	6:14:00E	32PKA0160390067	ND32-05	L	RESF		NG	06				N			Forêt Classée	FORETCLASSEEDEKOROFAN	Forêt Classée de Korofan	Foret Classee de Korofan	KOROFAN FORETCLASSEEDE	Korofan, Forêt Classée de	Korofan, Foret Classee de		1993-12-18	1,2,3,4,5	1			2008-09-23		
1	-1082852	-1606222	14.366667	6.233333	14:22:00N	6:14:00E	32PKA0160390067	ND32-05	L	RESF		NG	06				V				FORETCLASSEEDEKAROFANE	Forêt Classée de Karofane	Foret Classee de Karofane	KAROFANE FORETCLASSEEDE	Karofane, Forêt Classée de	Karofane, Foret Classee de		1993-12-18	1,2,3,4,5				2008-09-23		
3	-1086303	-1610836	16.39	5.62	16:23:24N	5:37:12E	31QGU7985013882	NE31-16	L	LCTY		NG	06				N				TAOUDAOUENE	Taoudaouene	Taoudaouene	TAOUDAOUENE	Taoudaouene	Taoudaouene		2006-11-06	1,2,3,4,5	1			1993-09-01		
3	-1086303	-1610839	16.39	5.62	16:23:24N	5:37:12E	31QGU7985013882	NE31-16	L	LCTY		NG	06				V				TAOUDAWEN	Taoudawen	Taoudawen	TAOUDAWEN	Taoudawen	Taoudawen		2006-11-06	1,2,3,4,5				1993-09-01		
3	-1084612	-1608637	17.017778	7.735556	17:01:04N	7:44:08E	32QLD6541281956	NE32-10	L	LCTY		NG	01				N				MOUSTIKEL	Moustikél	Moustikel	MOUSTIKEL	Moustikél	Moustikel		2006-10-03	1,2,3,4,5	1			1993-09-01		
3	-1083430	-1607018	13.6	7.716667	13:36:00N	7:43:00E	32PLA6116503855	ND32-10	L	LCTY		NG	04				N				KOUFANFARANKAMA	Koufan Faran Kama	Koufan Faran Kama	KOUFANFARANKAMA	Koufan Faran Kama	Koufan Faran Kama		1993-12-18	1,2,3,4,5	1			1993-09-01		
3	-1084589	-1608603	13.8	10.1	13:48:00N	10:06:00E	32PPA1889825880	ND32-11	L	RGN		NG	07				N				MOUNIO	Mounio	Mounio	MOUNIO	Mounio	Mounio		1993-12-18	1,2,3,4,5	1			1993-09-01		
3	-1082755	-1606102	19.083333	12.866667	19:05:00N	12:52:00E	33QTB7553811415	NE33-01	L	OAS		NG	01				V	fra			KAOUAROASIS	Kaouar Oasis	Kaouar Oasis	KAOUAROASIS	Kaouar Oasis	Kaouar Oasis		1997-03-07	1,2,3,4,5,6,7,8,9				1993-09-01		
3	-1082755	-1606095	19.083333	12.866667	19:05:00N	12:52:00E	33QTB7553811415	NE33-01	L	OAS		NG	01				N	fra			KAOUAR	Kaouar	Kaouar	KAOUAR	Kaouar	Kaouar		1997-03-07	1,2,3,4,5,6,7,8,9	1			1993-09-01		
3	-1085447	-1609690	17	2	17:00:00N	2:00:00E	31QCU9355279827	NE31-10	L	RGN		NG	00				V				SAHELIENNE	Sahélienne	Sahelienne	SAHELIENNE	Sahélienne	Sahelienne		1994-03-29	1,2,3,4,5				1993-09-01		
3	-1085447	-1609688	17	2	17:00:00N	2:00:00E	31QCU9355279827	NE31-10	L	RGN		NG	00			MR	N				SAHEL	Sahel	Sahel	SAHEL	Sahel	Sahel		1994-03-29	1,2,3,4,5				1993-09-01		
3	-1085447	-1609687	17	2	17:00:00N	2:00:00E	31QCU9355279827	NE31-10	L	RGN		NG	00			ML	N				SAHEL	Sahel	Sahel	SAHEL	Sahel	Sahel		1994-03-29	1,2,3,4,5	1			1993-09-01		
3	-1085447	-1609686	17	2	17:00:00N	2:00:00E	31QCU9355279827	NE31-10	L	RGN		NG	00			CD	N				SAHEL	Sahel	Sahel	SAHEL	Sahel	Sahel		1994-03-29	1,2,3,4,5				1993-09-01		
3	-1083560	-1607186	20.383333	8.85	20:23:00N	8:51:00E	32QMH8434853909	NF32-14	L	SALT		NG	01				N				KOURIAADRINE	Kouria Adrine	Kouria Adrine	KOURIAADRINE	Kouria Adrine	Kouria Adrine		1993-12-18	1,2,3,4,5	1			1993-09-01		
3	-1083560	-1607185	20.383333	8.85	20:23:00N	8:51:00E	32QMH8434853909	NF32-14	L	SALT		NG	01				V				KOURIAADRIN	Kouria Adrin	Kouria Adrin	KOURIAADRIN	Kouria Adrin	Kouria Adrin		1993-12-18	1,2,3,4,5				1993-09-01		
3	-1082059	6547794	16.516667	5.700278	16:31:00N	5:42:01E	31QGU8824328020	NE31-16	L	LCTY		NG	06				N				EBOUKET	Eboukèt	Ebouket	EBOUKET	Eboukèt	Ebouket		2006-11-06	1,2,3,4,5	1			1993-09-01		
3	-1082059	-1605063	16.516667	5.700278	16:31:00N	5:42:01E	31QGU8824328020	NE31-16	L	LCTY		NG	06				V				IBEKAT	Ibekat	Ibekat	IBEKAT	Ibekat	Ibekat		2006-11-06	1,2,3,4,5				1993-09-01		
3	-1082056	-1605056	18.794444	6.673333	18:47:40N	6:40:24E	32QKF5476679688	NE32-05	L	LCTY		NG	01				V				IBATALENE	Ibatalene	Ibatalene	IBATALENE	Ibatalene	Ibatalene		2006-06-08	1,2,3,4,5				1993-09-01		
3	-1082056	-1600179	18.794444	6.673333	18:47:40N	6:40:24E	32QKF5476679688	NE32-05	L	LCTY		NG	01				V				BATALEN	Batalen	Batalen	BATALEN	Batalen	Batalen		2006-06-08	1,2,3,4,5				1993-09-01		
3	-1082056	-1605055	18.794444	6.673333	18:47:40N	6:40:24E	32QKF5476679688	NE32-05	L	LCTY		NG	01				N				IBATALEN	Ibatalén	Ibatalen	IBATALEN	Ibatalén	Ibatalen		2006-06-08	1,2,3,4,5	1			1993-09-01		
3	-1077485	-1598769	14.5	9.75	14:30:00N	9:45:00E	32PNB8081703157	ND32-07	L	RGN		NG	07				N				ALAKOS	Alakos	Alakos	ALAKOS	Alakos	Alakos		1993-12-18	1,2,3,4,5	1			1993-09-01		
3	-1077485	-1598770	14.5	9.75	14:30:00N	9:45:00E	32PNB8081703157	ND32-07	L	RGN		NG	07				V				ALAKOSS	Alakoss	Alakoss	ALAKOSS	Alakoss	Alakoss		1993-12-18	1,2,3,4,5				1993-09-01		
3	-1079314	-1601330	13.483333	7.683333	13:29:00N	7:41:00E	32PLV5748990969	ND32-10	L	RESF		NG	04				N				FORETCLASSEEDEDANGABA	Forêt Classée de Dangaba	Foret Classee de Dangaba	DANGABA FORETCLASSEEDE	Dangaba, Forêt Classée de	Dangaba, Foret Classee de		1993-12-18	1,2,3,4,5	1			1993-09-01		
3	-1079435	-1601469	13.466667	7.933333	13:28:00N	7:56:00E	32PLV8454388994	ND32-10	L	LCTY		NG	04				N				DANLAKA	Danlaka	Danlaka	DANLAKA	Danlaka	Danlaka		1993-12-18	1,2,3,4,5	1			1993-09-01		
3	-1079472	-1601512	13.716667	8.433333	13:43:00N	8:26:00E	32PMA3873016463	ND32-10	L	RESF		NG	07				N			Forêt Classée	FORETCLASSEEDEDANOGOMNA	Forêt Classée de Dan Ogomna	Foret Classee de Dan Ogomna	DANOGOMNA FORETCLASSEEDE	Dan Ogomna, Forêt Classée de	Dan Ogomna, Foret Classee de		1993-12-18	1,2,3,4,5	1			1993-09-01		
3	-1077889	-1599321	13.783333	4	13:47:00N	4:00:00E	31PFR0809623989	ND31-11	L	RGN		NG	03				N				AREOUA	Aréoua	Areoua	AREOUA	Aréoua	Areoua		1993-12-18	1,2,3,4,5	1			1993-09-01		
3	-1077889	-1599326	13.783333	4	13:47:00N	4:00:00E	31PFR0809623989	ND31-11	L	RGN		NG	03				V				AREWA	Aréwa	Arewa	AREWA	Aréwa	Arewa		1993-12-18	1,2,3,4,5				1993-09-01		
3	-1077676	-1599031	16.843333	6.658056	16:50:36N	6:39:29E	32QKD5045163702	NE32-13	L	LCTY		NG	01				N				ANASSAFAR	Anassafar	Anassafar	ANASSAFAR	Anassafar	Anassafar		2006-06-27	1,2,3,4,5	1			1993-09-01		
3	-1077676	-1599029	16.843333	6.658056	16:50:36N	6:39:29E	32QKD5045163702	NE32-13	L	LCTY		NG	01				V				ANASAFAR	Anasafar	Anasafar	ANASAFAR	Anasafar	Anasafar		2006-06-27	1,2,3,4,5				1993-09-01		
3	-1078577	-1600333	13.783333	8.866667	13:47:00N	8:52:00E	32PMA8558823768	ND32-10	L	RESF		NG	07				N			Forêt Classée	FORETCLASSEEDEBERBERIKYA	Forêt Classée de Berbérikya	Foret Classee de Berberikya	BERBERIKYA FORETCLASSEEDE	Berbérikya, Forêt Classée de	Berberikya, Foret Classee de		1993-12-18	1,2,3,4,5	1			1993-09-01		
3	-1082431	-1605688	18.62	4.948611	18:37:12N	4:56:55E	31QGA0558459899	NE31-08	L	RGN		NG	01				N				JADAL	Jadal	Jadal	JADAL	Jadal	Jadal		2007-03-19	1,2,3,4,5	1			2007-03-19		
3	-1083936	-1607700	18.657778	7.600278	18:39:28N	7:36:01E	32QLF5236963539	NE32-06	L	LCTY		NG	01				N				MADOUELA	Madouéla	Madouela	MADOUELA	Madouéla	Madouela		2006-06-20	1,2,3,4,5	1			1993-09-01		
3	-1083936	-1607669	18.657778	7.600278	18:39:28N	7:36:01E	32QLF5236963539	NE32-06	L	LCTY		NG	01				V				MADAOUELA	Madaouela	Madaouela	MADAOUELA	Madaouela	Madaouela		2006-06-20	1,2,3,4,5				1993-09-01		
3	-1080985	-1603778	14	6	14:00:00N	6:00:00E	32PJA7589649780	ND32-05	L	RGN		NG	06				N				GOBERTOUDOU	Gober Toudou	Gober Toudou	GOBERTOUDOU	Gober Toudou	Gober Toudou		1993-12-18	1,2,3,4,5	1			1993-09-01		
3	-1080974	-1603767	13.8	6.85	13:48:00N	6:51:00E	32PKA6757226648	ND32-09	L	RGN		NG	04				N				GOBER	Gober	Gober	GOBER	Gober	Gober		1993-12-18	1,2,3,4,5	1			1993-09-01		
3	-1082317	-1605484	18.761944	5.980833	18:45:43N	5:58:51E	31QHA1428977119	NE31-08	L	RGN		NG	01				N				INTABAREKKAT	I-n-Tabarekkat	I-n-Tabarekkat	INTABAREKKAT	I-n-Tabarekkat	I-n-Tabarekkat		2006-06-27	1,2,3,4,5	1			1993-09-01		
3	-1082317	-1605483	18.761944	5.980833	18:45:43N	5:58:51E	31QHA1428977119	NE31-08	L	RGN		NG	01				V				INTABARAKKAT	In Tabarakkat	In Tabarakkat	INTABARAKKAT	In Tabarakkat	In Tabarakkat		2006-06-27	1,2,3,4,5				1993-09-01		
3	-1082317	-1598347	18.761944	5.980833	18:45:43N	5:58:51E	31QHA1428977119	NE31-08	L	RGN		NG	01				V				ABARAKAT	Abarakat	Abarakat	ABARAKAT	Abarakat	Abarakat		2006-06-27	1,2,3,4,5				1993-09-01		
3	-1082317	-1610306	18.761944	5.980833	18:45:43N	5:58:51E	31QHA1428977119	NE31-08	L	RGN		NG	01				V			Oued	OUEDINTABARAKKAT	Oued In Tabarakkat	Oued In Tabarakkat	TABARAKKAT OUEDIN	Tabarakkat, Oued In	Tabarakkat, Oued In		2006-06-27	1,2,3,4,5				1993-09-01		
3	-1086833	-1611708	16.250556	4.195	16:15:02N	4:11:42E	31QFT2770297024	NE31-15	L	LCTY		NG	06				N				TINJEKODA	Ti-n-Jékoda	Ti-n-Jekoda	TINJEKODA	Ti-n-Jékoda	Ti-n-Jekoda		2006-06-22	1,2,3,4,5	1			1993-09-01		
3	-1082350	-1605534	16.590278	5.161667	16:35:25N	5:09:42E	31QGU3063535473	NE31-16	L	LCTY		NG	06				N				INTEBORAK	I-n-Teborak	I-n-Teborak	INTEBORAK	I-n-Teborak	I-n-Teborak		2006-11-06	1,2,3,4,5	1			1993-09-01		
3	203361	254044	16.75	5	16:45:00N	5:00:00E	31QGU1320352972	NE31-16	L	RGN		NG	06				N				AZAOUAGH	Azaouagh	Azaouagh	AZAOUAGH	Azaouagh	Azaouagh		1997-03-07	1,2,3,4,5,6,7,8,9	1			1997-03-07		
3	203432	254166	18.84	4.431389	18:50:24N	4:25:53E	31QFA5080983732	NE31-07	L	RGN		NG	01				N				TAMESNA	Tamesna	Tamesna	TAMESNA	Tamesna	Tamesna		2007-03-19	1,2,3,4,5,6,7,8,9	1			2007-03-19		
3	6314170	6457345	16.034722	4.610556	16:02:05N	4:36:38E	31QFT7230573445	NE31-16	L	LCTY		NG	06				N				IGUIFNITCHENAAR	Iguif-n-Itchénaar	Iguif-n-Itchenaar	IGUIFNITCHENAAR	Iguif-n-Itchénaar	Iguif-n-Itchenaar		2006-06-22	1,2,3,4	1			1993-09-01		
3	6314171	6457346	16.056667	4.515	16:03:24N	4:30:54E	31QFT6206375796	NE31-16	L	LCTY		NG	06				N				ALAMON	Alamon	Alamon	ALAMON	Alamon	Alamon		2006-06-22	1,2,3,4	1			1993-09-01		
3	6314172	6457347	16.013611	4.457222	16:00:49N	4:27:26E	31QFT5591470988	NE31-15	L	LCTY		NG	06				N				BAKOURET	Bakouret	Bakouret	BAKOURET	Bakouret	Bakouret		2006-06-22	1,2,3,4	1			1993-09-01		
3	6314176	6457352	16.143056	4.661944	16:08:35N	4:39:43E	31QFT7770885476	NE31-16	L	LCTY		NG	06				N				CHIDRAEL	Chidraèl	Chidrael	CHIDRAEL	Chidraèl	Chidrael		2006-06-22	1,2,3,4	1			1993-09-01		
3	6314178	6457355	16.145	4.739444	16:08:42N	4:44:22E	31QFT8599585760	NE31-16	L	LCTY		NG	06				N				INTAZO	I-n-Tazo	I-n-Tazo	INTAZO	I-n-Tazo	I-n-Tazo		2006-06-22	1,2,3,4	1			1993-09-01		
3	6314180	6457357	16.123333	4.8775	16:07:24N	4:52:39E	31QGT0078483492	NE31-16	L	LCTY		NG	06				N				IBARDA	Ibarda	Ibarda	IBARDA	Ibarda	Ibarda		2006-06-22	1,2,3,4	1			1993-09-01		
3	6314181	6457358	16.122778	4.828889	16:07:22N	4:49:44E	31QFT9558483384	NE31-16	L	LCTY		NG	06				N				IGUENDEL	Iguendel	Iguendel	IGUENDEL	Iguendel	Iguendel		2006-06-22	1,2,3,4	1			1993-09-01		
3	6313589	6407668	18.063889	6.621667	18:03:50N	6:37:18E	32QKE4825598875	NE32-05	L	LCTY		NG	01				N				TAKARECH	Takarech	Takarech	TAKARECH	Takarech	Takarech		2006-06-08	1,2,3,4	1			1993-09-01		
3	6314246	6457423	16.404167	4.557778	16:24:15N	4:33:28E	31QFU6634714282	NE31-16	L	LCTY		NG	06				N				INTERITCH	I-n-Téritch	I-n-Teritch	INTERITCH	I-n-Téritch	I-n-Teritch		2006-06-22	1,2,3,4	1			1993-09-01		
3	6314026	6445611	18.962778	7.400556	18:57:46N	7:24:02E	32QLF3160497473	NE32-05	L	LCTY		NG	01				N				TCHINTIGUIT	Tchi-n-Tiguit	Tchi-n-Tiguit	TCHINTIGUIT	Tchi-n-Tiguit	Tchi-n-Tiguit		2006-06-20	1,2	1			1993-09-01		
3	6314029	6445614	18.803611	7.291944	18:48:13N	7:17:31E	32QLF1999679963	NE32-05	L	LCTY		NG	01				N				ALEBOK	Alebok	Alebok	ALEBOK	Alebok	Alebok		2006-06-20	1,2	1			1993-09-01		
3	6314031	6445616	18.859167	7.091944	18:51:33N	7:05:31E	32QKF9897986327	NE32-05	L	LCTY		NG	01				N				EGDYOUAN	Egdyouan	Egdyouan	EGDYOUAN	Egdyouan	Egdyouan		2006-06-20	1,2,3,4	1			1993-09-01		
3	6314037	6445623	18.714722	7.771389	18:42:53N	7:46:17E	32QLF7046269708	NE32-06	L	LCTY		NG	01				N				HEROG	Hérog	Herog	HEROG	Hérog	Herog		2006-06-20	1,2,3,4	1			1993-09-01		
3	6314039	6445625	18.658056	7.716667	18:39:29N	7:43:00E	32QLF6464763478	NE32-06	L	LCTY		NG	01				N				WOURTEWEN	Wourtéwen	Wourtewen	WOURTEWEN	Wourtéwen	Wourtewen		2006-06-20	1,2,3,4	1			1993-09-01		
3	6314041	6445627	18.530278	7.736944	18:31:49N	7:44:13E	32QLF6668649322	NE32-06	L	LCTY		NG	01				N				OURTISELIN	Ourtiselin	Ourtiselin	OURTISELIN	Ourtiselin	Ourtiselin		2006-06-20	1,2,3,4	1			1993-09-01		
3	6314043	6445629	18.459444	7.739167	18:27:34N	7:44:21E	32QLF6686641482	NE32-06	L	LCTY		NG	01				N				TANGIMA	Tangima	Tangima	TANGIMA	Tangima	Tangima		2006-06-20	1,2,3,4	1			1993-09-01		
3	6314044	6445630	18.459167	7.580278	18:27:33N	7:34:49E	32QLF5008641575	NE32-06	L	LCTY		NG	01				N				TCHIMOZENOUG	Tchimozenoug	Tchimozenoug	TCHIMOZENOUG	Tchimozenoug	Tchimozenoug		2006-06-20	1,2,3,4	1			1993-09-01		
3	6314203	6457380	16.649722	4.7375	16:38:59N	4:44:15E	31QFU8530941611	NE31-16	L	LCTY		NG	06				N				ARGUEMBA	Arguèmba	Arguemba	ARGUEMBA	Arguèmba	Arguemba		2006-06-22	1,2,3,4	1			1993-09-01		
3	6314206	6457383	16.021667	4.851389	16:01:18N	4:51:05E	31QFT9809172216	NE31-16	L	LCTY		NG	06				N				INTORO	I-n-Toro	I-n-Toro	INTORO	I-n-Toro	I-n-Toro		2006-06-22	1,2,3,4	1			1993-09-01		
3	6314207	6457384	16.0475	4.816389	16:02:51N	4:48:59E	31QFT9432075041	NE31-16	L	LCTY		NG	06				N				TCHOUKOULOULANE	Tchoukouloulane	Tchoukouloulane	TCHOUKOULOULANE	Tchoukouloulane	Tchoukouloulane		2006-06-22	1,2,3,4	1			1993-09-01		
3	6314216	6457393	16.965556	4.949444	16:57:56N	4:56:58E	31QGU0757676775	NE31-16	L	LCTY		NG	06				N				IRHAGANE	Ir Hagane	Ir Hagane	IRHAGANE	Ir Hagane	Ir Hagane		2006-06-22	1,2,3,4	1			1993-09-01		
3	6314218	6457395	16.793611	4.946111	16:47:37N	4:56:46E	31QGU0740957741	NE31-16	L	LCTY		NG	06				N				TINGHOUTENE	Ti-n-Ghoutene	Ti-n-Ghoutene	TINGHOUTENE	Ti-n-Ghoutene	Ti-n-Ghoutene		2006-06-22	1,2,3,4	1			1993-09-01		
3	6314223	6457400	16.711944	4.693889	16:42:43N	4:41:38E	31QFU8059848457	NE31-16	L	LCTY		NG	06				N				TAZAR	Tazar	Tazar	TAZAR	Tazar	Tazar		2006-06-22	1,2,3,4	1			1993-09-01		
3	6314229	6457406	16.804444	4.759444	16:48:16N	4:45:34E	31QFU8749958754	NE31-16	L	LCTY		NG	06				N				AJENE	Ajène	Ajene	AJENE	Ajène	Ajene		2006-06-22	1,2,3,4	1			1993-09-01		
3	6313587	6407666	18.5475	6.224444	18:32:51N	6:13:28E	32QKF0700053019	NE32-05	L	LCTY		NG	01				N				TIMMERSOI	Tim-Mersoi	Tim-Mersoi	TIMMERSOI	Tim-Mersoi	Tim-Mersoi		2006-06-08	1,2,3,4	1			1993-09-01		
3	6331290	6542843	17.685556	7.654722	17:41:08N	7:39:17E	32QLE5732455906	NE32-10	L	LCTY		NG	01				N				OURICHA	Ouricha	Ouricha	OURICHA	Ouricha	Ouricha		2006-10-03	1,2,3,4	1			1993-09-01		
3	6331292	6542845	17.696389	7.338611	17:41:47N	7:20:19E	32QLE2380257372	NE32-09	L	RGN		NG	01				N				SEKKIRET	Sékkirét	Sekkiret	SEKKIRET	Sékkirét	Sekkiret		2006-10-03	1,2,3,4	1			1993-09-01		
3	6331294	6542847	17.581389	7.431389	17:34:53N	7:25:53E	32QLE3353844561	NE32-09	L	AREA		NG	01				N				TAOURDE	Taourdé	Taourde	TAOURDE	Taourdé	Taourde		2006-10-03	1,2,3,4	1			1993-09-01		
3	6331298	6542851	17.328056	7.066944	17:19:41N	7:04:01E	32QKE9456816879	NE32-09	L	RGN		NG	01				N				TCHIDRARIN	Tchidrarin	Tchidrarin	TCHIDRARIN	Tchidrarin	Tchidrarin		2006-10-03	1,2,3,4	1			1993-09-01		
3	-1086551	-1611231	14.470515	12.345755	14:28:14N	12:20:45E	33PTS1386901421	ND33-05	L	LCTY		NG	02				N				TEL	Tel	Tel	TEL	Tel	Tel		2013-01-24	1,2,3,4,5	1			2013-01-24		
3	6331333	6542891	17.216944	7.139167	17:13:01N	7:08:21E	32QLE0212704506	NE32-09	L	LCTY		NG	01				N				TAGHESENZOUTOU	Taghes-en-Zoutou	Taghes-en-Zoutou	TAGHESENZOUTOU	Taghes-en-Zoutou	Taghes-en-Zoutou		2006-10-03	1,2	1			1993-09-01		
3	6331336	6542894	17.119444	7.169167	17:07:10N	7:10:09E	32QLD0521693685	NE32-09	L	LCTY		NG	01				N				TAMAJOUT	Tamajout	Tamajout	TAMAJOUT	Tamajout	Tamajout		2006-10-03	1,2	1			1993-09-01		
3	6331337	6542895	17.139444	7.024444	17:08:22N	7:01:28E	32QKD8983796049	NE32-09	L	LCTY		NG	01				N				TIMOUKAL	Timoukal	Timoukal	TIMOUKAL	Timoukal	Timoukal		2006-10-03	1,2	1			1993-09-01		
3	6314913	6484062	16.548056	6.7725	16:32:53N	6:46:21E	32QKD6228630876	NE32-13	L	LCTY		NG	01				N				TINAGEROUF	Ti-n-Agérouf	Ti-n-Agerouf	TINAGEROUF	Ti-n-Agérouf	Ti-n-Agerouf		2006-06-27	1,2,3,4	1			1993-09-01		
3	6314918	6484067	16.505556	6.311944	16:30:20N	6:18:43E	32QKD1304626772	NE32-13	L	LCTY		NG	06				N				GERMAWEN	Germawén	Germawen	GERMAWEN	Germawén	Germawen		2006-06-27	1,2,3,4	1			1993-09-01		
3	6314919	6484068	16.571111	6.012222	16:34:16N	6:00:44E	32QJD8113534483	NE32-13	L	LCTY		NG	06				N				DORHAR	Dorhar	Dorhar	DORHAR	Dorhar	Dorhar		2006-06-27	1,2,3,4	1			1993-09-01		
3	6314921	6484070	16.957778	6.200278	16:57:28N	6:12:01E	32QKD0182377010	NE32-13	L	LCTY		NG	06				N				SOMAN	Soman	Soman	SOMAN	Soman	Soman		2006-06-27	1,2,3,4	1			1993-09-01		
3	6334658	6546804	16.578333	10.394444	16:34:42N	10:23:40E	32QPD4876933426	NE32-15	L	AREA		NG	07				N				DJINKEBI	Djinkebi	Djinkebi	DJINKEBI	Djinkebi	Djinkebi		2006-10-26	1,2,3,4	1			1993-09-01		
3	6334665	6546811	16.44	10.492778	16:26:24N	10:29:34E	32QPD5937618194	NE32-15	L	AREA		NG	07				N				ERENE	Erene	Erene	ERENE	Erene	Erene		2006-10-26	1,2,3,4	1			1993-09-01		
3	6334666	6546812	16.093889	10.1375	16:05:38N	10:08:15E	32QPC2165379656	NE32-15	L	AREA		NG	07				N				TCHIFAGAGUENE	Tchifagaguene	Tchifagaguene	TCHIFAGAGUENE	Tchifagaguene	Tchifagaguene		2006-10-26	1,2,3,4	1			1993-09-01		
3	6329813	6541111	16.753889	8.5675	16:45:14N	8:34:03E	32QMD5390352379	NE32-14	L	AREA		NG	01				V				ERHELGAOUENE	Erhel Gaouene	Erhel Gaouene	ERHELGAOUENE	Erhel Gaouene	Erhel Gaouene		2006-09-14	1,2,3,4				1993-09-01		
3	6329813	6541110	16.753889	8.5675	16:45:14N	8:34:03E	32QMD5390352379	NE32-14	L	AREA		NG	01				N				EGHELGAOUENE	Eghel Gaouene	Eghel Gaouene	EGHELGAOUENE	Eghel Gaouene	Eghel Gaouene		2006-09-14	1,2,3,4	1			1993-09-01		
3	6314416	6483300	18.330278	5.352778	18:19:49N	5:21:10E	31QGA4866028333	NE31-08	L	RGN		NG	01				V				AGHLALNEKLA	Aghlal-n-Ekla	Aghlal-n-Ekla	AGHLALNEKLA	Aghlal-n-Ekla	Aghlal-n-Ekla		2006-06-27	1,2,3,4				1993-09-01		
3	6314416	6483299	18.330278	5.352778	18:19:49N	5:21:10E	31QGA4866028333	NE31-08	L	RGN		NG	01				N				BAZI	Bazi	Bazi	BAZI	Bazi	Bazi		2006-06-27	1,2,3,4	1			1993-09-01		
3	6314420	6483305	18.126111	5.206944	18:07:34N	5:12:25E	31QGA3351305538	NE31-08	L	RGN		NG	01				N				INTEGUEDIT	I-n-Téguêdit	I-n-Teguedit	INTEGUEDIT	I-n-Téguêdit	I-n-Teguedit		2006-06-27	1,2,3,4	1			1993-09-01		
3	6314882	6484031	16.055833	6.883611	16:03:21N	6:53:01E	32QKC7358376268	NE32-13	L	LCTY		NG	01				N				WALETEBRIK	Walétébrik	Waletebrik	WALETEBRIK	Walétébrik	Waletebrik		2006-06-27	1,2,3,4	1			1993-09-01		
3	6314884	6484033	16.115278	6.448056	16:06:55N	6:26:53E	32QKC2704483375	NE32-13	L	LCTY		NG	06				N				TCHIKOULEM	Tchikoulém	Tchikoulem	TCHIKOULEM	Tchikoulém	Tchikoulem		2006-06-27	1,2,3,4	1			1993-09-01		
3	6314889	6484038	16.448333	6.061389	16:26:54N	6:03:41E	32QJD8618820809	NE32-13	L	LCTY		NG	06				N				IRHAMAR	Irhamar	Irhamar	IRHAMAR	Irhamar	Irhamar		2006-06-27	1,2,3,4	1			1993-09-01		
3	6314896	6484045	16.295	6.415833	16:17:42N	6:24:57E	32QKD2384603315	NE32-13	L	LCTY		NG	06				N				INGAGAN	I-n-Gagan	I-n-Gagan	INGAGAN	I-n-Gagan	I-n-Gagan		2006-06-27	1,2,3,4	1			1993-09-01		
3	6314897	6484046	16.390556	6.488889	16:23:26N	6:29:20E	32QKD3178813797	NE32-13	L	LCTY		NG	06				N				TIMERHAGALIN	Timerhagalin	Timerhagalin	TIMERHAGALIN	Timerhagalin	Timerhagalin		2006-06-27	1,2,3,4	1			1993-09-01		
3	6314898	6484047	16.463611	6.556667	16:27:49N	6:33:24E	32QKD3912821796	NE32-13	L	LCTY		NG	06				N				TEKADE	Tékadé	Tekade	TEKADE	Tékadé	Tekade		2006-06-27	1,2,3,4	1			1993-09-01		
3	6314047	6445633	18.1875	7.222222	18:11:15N	7:13:20E	32QLF1197511841	NE32-05	L	LCTY		NG	01				N				OUFATIKIN	Oufatikin	Oufatikin	OUFATIKIN	Oufatikin	Oufatikin		2006-06-20	1,2,3,4	1			1993-09-01		
3	6314048	6445634	18.477222	7.185833	18:28:38N	7:11:09E	32QLF0844543946	NE32-05	L	LCTY		NG	01				N				TAFEGAK	Tafegak	Tafegak	TAFEGAK	Tafegak	Tafegak		2006-06-20	1,2,3,4	1			1993-09-01		
3	6314051	6445637	18.009444	7.782222	18:00:34N	7:46:56E	32QLE7108291654	NE32-06	L	LCTY		NG	01				N				ZIEKOT	Ziékot	Ziekot	ZIEKOT	Ziékot	Ziekot		2006-06-20	1,2,3,4	1			1993-09-01		
3	6314052	6445638	18.713889	7.553333	18:42:50N	7:33:12E	32QLF4746769788	NE32-06	L	LCTY		NG	01				N				AGALIOUK	Agaliouk	Agaliouk	AGALIOUK	Agaliouk	Agaliouk		2006-06-20	1,2,3,4	1			1993-09-01		
3	6314058	6445644	18.271667	7.845	18:16:18N	7:50:42E	32QLF7791120628	NE32-06	L	LCTY		NG	01				N				INTADENAWIN	I-n-Tadenawin	I-n-Tadenawin	INTADENAWIN	I-n-Tadenawin	I-n-Tadenawin		2006-06-20	1,2,3	1			1993-09-01		
3	6314060	6445646	18.131111	7.8675	18:07:52N	7:52:03E	32QLF8019305060	NE32-06	L	LCTY		NG	01				N				TELARLAK	Télarlak	Telarlak	TELARLAK	Télarlak	Telarlak		2006-06-20	1,2,3,4	1			1993-09-01		
3	6315657	6487879	16.973889	5.754167	16:58:26N	5:45:15E	31QGU9329778726	NE31-16	L	LCTY		NG	06				N				ESSAOUI	Essaoui	Essaoui	ESSAOUI	Essaoui	Essaoui		2006-11-06	1,2,3,4	1			1993-09-01		
3	6315659	6487881	17.033056	5.671389	17:01:59N	5:40:17E	31QGU8438785155	NE31-12	L	LCTY		NG	06				N				AFASSAS	Afassas	Afassas	AFASSAS	Afassas	Afassas		2006-06-30	1,2,3,4	1			1993-09-01		
3	6329764	6541057	16.182778	8.636667	16:10:58N	8:38:12E	32QMC6116289188	NE32-14	L	AREA		NG	01				N				TAGUEDOUFAT	Taguedoufat	Taguedoufat	TAGUEDOUFAT	Taguedoufat	Taguedoufat		2006-09-14	1,2,3,4	1			1993-09-01		
3	6331339	6542897	17.124167	7.078333	17:07:27N	7:04:42E	32QKD9555594301	NE32-09	L	LCTY		NG	01				N				IGHOURES	Ighoures	Ighoures	IGHOURES	Ighoures	Ighoures		2006-10-03	1,2	1			1993-09-01		
3	6331343	6542901	17.016389	7.124167	17:00:59N	7:07:27E	32QLD0031882325	NE32-09	L	LCTY		NG	01				N				IFOKANE	Ifokane	Ifokane	IFOKANE	Ifokane	Ifokane		2006-10-03	1,2	1			1993-09-01		
3	6331344	6542902	17.0725	7.206111	17:04:21N	7:12:22E	32QLD0910088453	NE32-09	L	LCTY		NG	01				N				EGHZA	Eghza	Eghza	EGHZA	Eghza	Eghza		2006-10-03	1,2	1			1993-09-01		
3	6331304	6542859	17.326944	7.641667	17:19:37N	7:38:30E	32QLE5565616233	NE32-10	L	LCTY		NG	01				N				TIDOGEY	Tidogéy	Tidogey	TIDOGEY	Tidogéy	Tidogey		2006-10-03	1,2,3,4	1			1993-09-01		
3	6331306	6542861	17.0075	7.785556	17:00:27N	7:47:08E	32QLD7072880785	NE32-10	L	LCTY		NG	01				N				ANKAF	Ankaf	Ankaf	ANKAF	Ankaf	Ankaf		2006-10-03	1,2,3,4	1			1993-09-01		
3	6331316	6542873	17.121944	7.345278	17:07:19N	7:20:43E	32QLD2396093794	NE32-09	L	LCTY		NG	01				N				ILEGHITENE	Ileghitene	Ileghitene	ILEGHITENE	Ileghitene	Ileghitene		2006-10-03	1,2	1			1993-09-01		
3	6331328	6542886	17.048056	7.270833	17:02:53N	7:16:15E	32QLD1596685686	NE32-09	L	RGN		NG	01				N				TCHIMBOURAGHENE	Tchi-m-Bouraghene	Tchi-m-Bouraghene	TCHIMBOURAGHENE	Tchi-m-Bouraghene	Tchi-m-Bouraghene		2006-10-03	1,2	1			1993-09-01		
3	6331331	6542889	17.225556	7.073611	17:13:32N	7:04:25E	32QKE9516405527	NE32-09	L	LCTY		NG	01				N				TIMEKERJAJ	Timekerjaj	Timekerjaj	TIMEKERJAJ	Timekerjaj	Timekerjaj		2006-10-03	1,2	1			1993-09-01		
3	6314923	6484072	16.973889	6.369722	16:58:26N	6:22:11E	32QKD1990478544	NE32-13	L	LCTY		NG	01				N				ABEDOKROU	Abédokrou	Abedokrou	ABEDOKROU	Abédokrou	Abedokrou		2006-06-27	1,2,3,4	1			1993-09-01		
3	6314928	6484077	16.968333	6.513889	16:58:06N	6:30:50E	32QKD3525777729	NE32-13	L	LCTY		NG	01				N				TINZRENIN	Ti-n-Zrénin	Ti-n-Zrenin	TINZRENIN	Ti-n-Zrénin	Ti-n-Zrenin		2006-06-27	1,2,3,4	1			1993-09-01		
3	6314929	6484078	16.969167	6.579444	16:58:09N	6:34:46E	32QKD4224277734	NE32-13	L	LCTY		NG	01				N				ANYOKAN	Anyokan	Anyokan	ANYOKAN	Anyokan	Anyokan		2006-06-27	1,2,3,4	1			1993-09-01		
3	6314930	6484079	16.918611	6.577222	16:55:07N	6:34:38E	32QKD4193672140	NE32-13	L	LCTY		NG	01				N				TIOURARE	Tiouraré	Tiourare	TIOURARE	Tiouraré	Tiourare		2006-06-27	1,2,3,4	1			1993-09-01		
3	6314931	6484080	16.763889	6.6	16:45:50N	6:36:00E	32QKD4415654982	NE32-13	L	LCTY		NG	01				N				ERAKJABAR	Érakjabar	Erakjabar	ERAKJABAR	Érakjabar	Erakjabar		2006-06-27	1,2,3,4	1			1993-09-01		
3	6314936	6484085	16.832778	6.757778	16:49:58N	6:45:28E	32QKD6106962411	NE32-13	L	LCTY		NG	01				N				INTERLAMIN	I-n-Terlamin	I-n-Terlamin	INTERLAMIN	I-n-Terlamin	I-n-Terlamin		2006-06-27	1,2,3,4	1			1993-09-01		
3	6329870	6541239	16.957778	7.254444	16:57:28N	7:15:16E	32QLD1413275710	NE32-13	L	LCTY		NG	01				N				TEGOURA	Tégoura	Tegoura	TEGOURA	Tégoura	Tegoura		2006-09-15	1,2,3,4	1			1993-09-01		
3	6329872	6541241	16.969444	7.347222	16:58:10N	7:20:50E	32QLD2402476916	NE32-13	L	AREA		NG	01				N				TEGAGIL	Tégagil	Tegagil	TEGAGIL	Tégagil	Tegagil		2006-09-15	1,2,3,4	1			1993-09-01		
3	6314398	6483276	18.58	5.423611	18:34:48N	5:25:25E	31QGA5577956081	NE31-08	L	LCTY		NG	01				N				ITINERAIRE	Itinéraire	Itineraire	ITINERAIRE	Itinéraire	Itineraire		2006-06-27	1,2,3,4	1			1993-09-01		
3	6314401	6483279	18.788333	5.778889	18:47:18N	5:46:44E	31QGA9293779696	NE31-08	L	RGN		NG	01				N				TESSATARHANET	Téssa Tarhanet	Tessa Tarhanet	TESSATARHANET	Téssa Tarhanet	Tessa Tarhanet		2006-06-27	1,2,3	1			1993-09-01		
3	6314404	6483282	18.328611	5.518056	18:19:43N	5:31:05E	31QGA6613928382	NE31-08	L	RGN		NG	01				N				CAHABELBAGRA	Câhab el Bagra	Cahab el Bagra	CAHABELBAGRA	Câhab el Bagra	Cahab el Bagra		2006-06-27	1,2,3,4	1			1993-09-01		
3	6314407	6483285	18.330278	5.352778	18:19:49N	5:21:10E	31QGA4866028333	NE31-08	L	RGN		NG	01				N				ARHLALNEKLA	Arhlal-n-Ekla	Arhlal-n-Ekla	ARHLALNEKLA	Arhlal-n-Ekla	Arhlal-n-Ekla		2006-06-27	1,2,3	1			1993-09-01		
3	6314410	6483288	18.788333	5.778889	18:47:18N	5:46:44E	31QGA9293779696	NE31-08	L	RGN		NG	01				N				ABRAIKA	Abraïka	Abraika	ABRAIKA	Abraïka	Abraika		2006-06-27	1,2,3,4	1			1993-09-01		
3	6314410	6483289	18.788333	5.778889	18:47:18N	5:46:44E	31QGA9293779696	NE31-08	L	RGN		NG	01				V				TESSATAGHANET	Téssa Taghanet	Tessa Taghanet	TESSATAGHANET	Téssa Taghanet	Tessa Taghanet		2006-06-27	1,2,3,4				1993-09-01		
3	6314412	6483293	18.678889	5.821667	18:40:44N	5:49:18E	31QGA9764167646	NE31-08	L	RGN		NG	01				N				EKADEMELLENE	Ékadé Mellene	Ekade Mellene	EKADEMELLENE	Ékadé Mellene	Ekade Mellene		2006-06-27	1,2,3,4	1			1993-09-01		
3	6331285	6542837	17.051944	7.713056	17:03:07N	7:42:47E	32QLD6304285752	NE32-10	L	AREA		NG	01				N				TJENZENFAL	Tjenzenfal	Tjenzenfal	TJENZENFAL	Tjenzenfal	Tjenzenfal		2006-10-03	1,2,3,4	1			1993-09-01		
3	6315596	6487817	17.498889	5.854444	17:29:56N	5:51:16E	31QHV0312437018	NE31-12	L	LCTY		NG	01				N				IDEBNANE	Idebnâne	Idebnane	IDEBNANE	Idebnâne	Idebnane		2006-06-30	1,2,3,4	1			1993-09-01		
3	6315598	6487819	17.503056	5.7375	17:30:11N	5:44:15E	31QGV9069137297	NE31-12	L	AREA		NG	01				N				AGOUDELRES	Agoudèlrès	Agoudelres	AGOUDELRES	Agoudèlrès	Agoudelres		2006-06-30	1,2,3,4	1			1993-09-01		
3	6334955	6547745	16.329444	5.722778	16:19:46N	5:43:22E	31QGU9092507322	NE31-16	L	LCTY		NG	06				N				ANDERES	Andéres	Anderes	ANDERES	Andéres	Anderes		2006-11-06	1,2,3,4	1			1993-09-01		
3	6334956	6547746	16.359722	5.710833	16:21:35N	5:42:39E	31QGU8960310657	NE31-16	L	LCTY		NG	06				N				BOUZOUS	Bouzous	Bouzous	BOUZOUS	Bouzous	Bouzous		2006-11-06	1,2,3,4	1			1993-09-01		
3	6334958	6547748	16.391667	5.781667	16:23:30N	5:46:54E	31QGU9712714297	NE31-16	L	LCTY		NG	06				N				AZAOUAR	Azaouar	Azaouar	AZAOUAR	Azaouar	Azaouar		2006-11-06	1,2,3,4	1			1993-09-01		
3	6334963	6547753	16.293056	5.848611	16:17:35N	5:50:55E	31QHU0443603476	NE31-16	L	LCTY		NG	06				N				AJIAN	Ajian	Ajian	AJIAN	Ajian	Ajian		2006-11-06	1,2,3,4	1			1993-09-01		
3	6334975	6547765	16.236667	5.757778	16:14:12N	5:45:28E	31QGT9480697099	NE31-16	L	LCTY		NG	06				N				BALARBALAR	Balarbalar	Balarbalar	BALARBALAR	Balarbalar	Balarbalar		2006-11-06	1,2,3,4	1			1993-09-01		
3	6334977	6547767	16.127222	5.894722	16:07:38N	5:53:41E	31QHT0962685182	NE31-16	L	LCTY		NG	06				N				INFOULALENE	I-n-Foulalene	I-n-Foulalene	INFOULALENE	I-n-Foulalene	I-n-Foulalene		2006-11-06	1,2,3,4	1			1993-09-01		
3	6315564	6487782	17.098056	5.567222	17:05:53N	5:34:02E	31QGU7319792203	NE31-12	L	LCTY		NG	06				N				TAMELLET	Ta-Mellet	Ta-Mellet	TAMELLET	Ta-Mellet	Ta-Mellet		2006-06-30	1,2,3,4	1			1993-09-01		
3	6315572	6487792	17.803611	5.670556	17:48:13N	5:40:14E	31QGV8310770476	NE31-12	L	RGN		NG	01				N				INAFIR	I-n-Afir	I-n-Afir	INAFIR	I-n-Afir	I-n-Afir		2006-06-30	1,2,3,4	1			1993-09-01		
3	6315575	6487795	17.920833	5.270278	17:55:15N	5:16:13E	31QGV4049682894	NE31-12	L	RGN		NG	01				N				INTABAKAT	I-n-Tabakat	I-n-Tabakat	INTABAKAT	I-n-Tabakat	I-n-Tabakat		2006-06-30	1,2,3,4	1			1993-09-01		
3	6329873	6541242	16.976111	7.429722	16:58:34N	7:25:47E	32QLD3281677581	NE32-13	L	AREA		NG	01				N				TEFAKAN	Téfakan	Tefakan	TEFAKAN	Téfakan	Tefakan		2006-09-15	1,2,3,4	1			1993-09-01		
3	6329876	6541245	16.969167	7.516111	16:58:09N	7:30:58E	32QLD4200976741	NE32-14	L	LCTY		NG	01				N				AZOG	Azog	Azog	AZOG	Azog	Azog		2006-09-15	1,2	1			1993-09-01		
3	6329881	6541250	16.838056	7.744167	16:50:17N	7:44:39E	32QLD6620262065	NE32-14	L	LCTY		NG	01				N				AGHAL	Aghal	Aghal	AGHAL	Aghal	Aghal		2006-09-15	1,2	1			1993-09-01		
3	6329883	6541252	16.8875	7.602222	16:53:15N	7:36:08E	32QLD5111567637	NE32-14	L	LCTY		NG	01				N				TEKNEOUINE	Têknéouîne	Tekneouine	TEKNEOUINE	Têknéouîne	Tekneouine		2006-09-15	1,2	1			1993-09-01		
3	6334917	6547707	16.101944	5.036944	16:06:07N	5:02:13E	31QGT1786481286	NE31-16	L	LCTY		NG	06				N				INTARODE	I-n-Tarodé	I-n-Tarode	INTARODE	I-n-Tarodé	I-n-Tarode		2006-11-06	1,2,3,4	1			1993-09-01		
3	6334918	6547708	16.155833	5.180278	16:09:21N	5:10:49E	31QGT3313887408	NE31-16	L	LCTY		NG	06				N				TIEGOMZAL	Tiégomzal	Tiegomzal	TIEGOMZAL	Tiégomzal	Tiegomzal		2006-11-06	1,2,3,4	1			1993-09-01		
3	6330200	6541623	17.0075	6.910833	17:00:27N	6:54:39E	32QKD7759081571	NE32-09	L	LCTY		NG	01				N				TIEMOUKEL	Tiémoukel	Tiemoukel	TIEMOUKEL	Tiémoukel	Tiemoukel		2006-09-19	1,2,3,4	1			1993-09-01		
3	6330201	6541624	17.63	6.333889	17:37:48N	6:20:02E	32QKE1709251246	NE32-09	L	LCTY		NG	01				N				GEFEDRIN	Géfédrin	Gefedrin	GEFEDRIN	Géfédrin	Gefedrin		2006-09-19	1,2,3,4	1			1993-09-01		
3	6330202	6541625	17.526389	6.181111	17:31:35N	6:10:52E	32QKE0069940007	NE32-09	L	AREA		NG	01				N				IGHAZEROUANAGADES	Ighazér-Ouan-Agadès	Ighazer-Ouan-Agades	IGHAZEROUANAGADES	Ighazér-Ouan-Agadès	Ighazer-Ouan-Agades		2006-09-19	1,2,3	1			1993-09-01		
3	6330204	6541627	17.235278	6.278333	17:14:07N	6:16:42E	32QKE1057107621	NE32-09	L	LCTY		NG	01				N				INGOUCHOUL	I-n-Gouchoul	I-n-Gouchoul	INGOUCHOUL	I-n-Gouchoul	I-n-Gouchoul		2006-09-19	1,2,3	1			1993-09-01		
3	6330205	6541628	17.229722	6.816111	17:13:47N	6:48:58E	32QKE6777806280	NE32-09	L	LCTY		NG	01				N				AKENZIGI	Akénzigi	Akenzigi	AKENZIGI	Akénzigi	Akenzigi		2006-09-19	1,2,3,4	1			1993-09-01		
3	6330207	6541630	17.684167	6.253333	17:41:03N	6:15:12E	32QKE0862657366	NE32-09	L	AREA		NG	01				N				INABANGAGHIT	I-n-Abangaghit	I-n-Abangaghit	INABANGAGHIT	I-n-Abangaghit	I-n-Abangaghit		2006-09-19	1,2,3,4	1			1993-09-01		
3	6330207	6541631	17.684167	6.253333	17:41:03N	6:15:12E	32QKE0862657366	NE32-09	L	AREA		NG	01				V				INABANGARHIT	In Abangarhit	In Abangarhit	INABANGARHIT	In Abangarhit	In Abangarhit		2006-09-19	1,2,3,4				1993-09-01		
3	6331647	6543268	17.2225	4.722778	17:13:21N	4:43:22E	31QFV8318304985	NE31-12	L	LCTY		NG	06				N				TEKNEOUINE	Teknéouine	Tekneouine	TEKNEOUINE	Teknéouine	Tekneouine		2006-10-13	1,2,3,4	1			1993-09-01		
3	6329942	6541311	16.385556	7.062222	16:23:08N	7:03:44E	32QKD9304312572	NE32-13	L	LCTY		NG	01				N				GADAMBO	Gadambo	Gadambo	GADAMBO	Gadambo	Gadambo		2006-09-15	1,2,3,4	1			1993-09-01		
3	6329946	6541315	16.491667	7.460556	16:29:30N	7:27:38E	32QLD3568523949	NE32-13	L	LCTY		NG	01				N				MARANDET	Marandét	Marandet	MARANDET	Marandét	Marandet		2006-09-15	1,2,3,4	1			1993-09-01		
3	6329947	6541316	16.376667	7.366667	16:22:36N	7:22:00E	32QLD2555811302	NE32-13	L	AREA		NG	01				N				CHITAKAMIN	Chitakamin	Chitakamin	CHITAKAMIN	Chitakamin	Chitakamin		2006-09-15	1,2,3,4	1			1993-09-01		
3	6329949	6541318	16.298333	7.491944	16:17:54N	7:29:31E	32QLD3887702531	NE32-13	L	LCTY		NG	01				N				TEROUMBOUTEN	Téroumboutén	Teroumbouten	TEROUMBOUTEN	Téroumboutén	Teroumbouten		2006-09-15	1,2,3,4	1			1993-09-01		
3	6329965	6541334	16.478056	7.978333	16:28:41N	7:58:42E	32QLD9094922092	NE32-14	L	LCTY		NG	01				N				INEGEN	Inegen	Inegen	INEGEN	Inegen	Inegen		2006-09-15	1,2,3,4	1			1993-09-01		
3	6331610	6543231	17.642778	4.945556	17:38:34N	4:56:44E	31QGV0640551727	NE31-12	L	LCTY		NG	06				N				SEDERLI	Sédèrli	Sederli	SEDERLI	Sédèrli	Sederli		2006-10-13	1,2,3,4	1			1993-09-01		
3	6331612	6543233	17.650278	4.845278	17:39:01N	4:50:43E	31QFV9575552450	NE31-12	L	LCTY		NG	06				N				INAROUINAT	I-n-Arouinat	I-n-Arouinat	INAROUINAT	I-n-Arouinat	I-n-Arouinat		2006-10-13	1,2,3,4	1			1993-09-01		
3	6331627	6543248	17.578889	4.780556	17:34:44N	4:46:50E	31QFV8896244483	NE31-12	L	AREA		NG	06				N				TAKENEBAOUAT	Takene Baouat	Takene Baouat	TAKENEBAOUAT	Takene Baouat	Takene Baouat		2006-10-13	1,2,3,4	1			1993-09-01		
3	6331629	6543250	17.518889	4.6175	17:31:08N	4:37:03E	31QFV7171037688	NE31-12	L	LCTY		NG	06				N				OKDEFKOUJIL	Okdèfkoujil	Okdefkoujil	OKDEFKOUJIL	Okdèfkoujil	Okdefkoujil		2006-10-13	1,2,3,4	1			1993-09-01		
3	6334940	6547730	16.552222	5.148611	16:33:08N	5:08:55E	31QGU2928731246	NE31-16	L	LCTY		NG	06				N				TIFATARATINE	Ti-Fataratine	Ti-Fataratine	TIFATARATINE	Ti-Fataratine	Ti-Fataratine		2006-11-06	1,2,3,4	1			1993-09-01		
3	6334941	6547731	16.601389	5.376667	16:36:05N	5:22:36E	31QGU5357036963	NE31-16	L	LCTY		NG	06				N				MADALMELLET	Madal Mellet	Madal Mellet	MADALMELLET	Madal Mellet	Madal Mellet		2006-11-06	1,2,3,4	1			1993-09-01		
3	6334946	6547736	16.072222	5.867778	16:04:20N	5:52:04E	31QHT0682779051	NE31-16	L	LCTY		NG	06				N				FARADIOU	Faradiou	Faradiou	FARADIOU	Faradiou	Faradiou		2006-11-06	1,2,3,4	1			1993-09-01		
3	6334948	6547738	16.329167	5.658056	16:19:45N	5:39:29E	31QGU8400607200	NE31-16	L	LCTY		NG	06				N				TAMOUZOULOU	Tamouzoulou	Tamouzoulou	TAMOUZOULOU	Tamouzoulou	Tamouzoulou		2006-11-06	1,2,3,4	1			1993-09-01		
3	6329921	6541290	16.755278	7.875	16:45:19N	7:52:30E	32QLD8009152822	NE32-14	L	AREA		NG	01				N				AFAKEN	Afakén	Afaken	AFAKEN	Afakén	Afaken		2006-09-15	1,2,3,4	1			1993-09-01		
3	6329922	6541291	16.751389	7.778889	16:45:05N	7:46:44E	32QLD6984352453	NE32-14	L	LCTY		NG	01				N				AFAKEN	Afakén	Afaken	AFAKEN	Afakén	Afaken		2006-09-15	1,2,3,4	1			1993-09-01		
3	6329924	6541293	16.506944	7.986667	16:30:25N	7:59:12E	32QLD9185525284	NE32-14	L	LCTY		NG	01				N				BOUBALO	Boubalo	Boubalo	BOUBALO	Boubalo	Boubalo		2006-09-15	1,2,3,4	1			1993-09-01		
3	6329926	6541295	16.633056	7.578889	16:37:59N	7:34:44E	32QLD4842839501	NE32-14	L	LCTY		NG	01				N				TOROUF	Torouf	Torouf	TOROUF	Torouf	Torouf		2006-09-15	1,2,3,4	1			1993-09-01		
3	6334879	6547669	16.654167	5.933611	16:39:15N	5:56:01E	31QHU1294543595	NE31-16	L	LCTY		NG	06				N				IMBEMBE	Imbèmbé	Imbembe	IMBEMBE	Imbèmbé	Imbembe		2006-11-06	1,2,3,4	1			1993-09-01		
3	6334882	6547672	16.439444	5.965278	16:26:22N	5:57:55E	31QHU1667719866	NE31-16	L	LCTY		NG	06				N				INFERASSENE	I-n- Férassene	I-n- Ferassene	INFERASSENE	I-n- Férassene	I-n- Ferassene		2006-11-06	1,2,3,4	1			1993-09-01		
3	6334883	6547673	16.443333	5.875833	16:26:36N	5:52:33E	31QHU0711120158	NE31-16	L	LCTY		NG	06				N				TEMERANE	Témérane	Temerane	TEMERANE	Témérane	Temerane		2006-11-06	1,2,3,4	1			1993-09-01		
3	6334889	6547679	16.448611	5.758056	16:26:55N	5:45:29E	31QGU9451720568	NE31-16	L	LCTY		NG	06				N				INTASME	I-n-Tasmé	I-n-Tasme	INTASME	I-n-Tasmé	I-n-Tasme		2006-11-06	1,2,3,4	1			1993-09-01		
3	6334890	6547680	16.420278	5.780833	16:25:13N	5:46:51E	31QGU9699417464	NE31-16	L	LCTY		NG	06				N				EKARATAT	Ekaratat	Ekaratat	EKARATAT	Ekaratat	Ekaratat		2006-11-06	1,2,3,4	1			1993-09-01		
3	6334901	6547691	16.410278	5.606667	16:24:37N	5:36:24E	31QGU7839616109	NE31-16	L	LCTY		NG	06				N				AKARAZRAZ	Akarazraz	Akarazraz	AKARAZRAZ	Akarazraz	Akarazraz		2006-11-06	1,2,3,4	1			1993-09-01		
3	6329927	6541296	16.633056	7.719167	16:37:59N	7:43:09E	32QLD6339239400	NE32-14	L	LCTY		NG	01				N				MAKATAN	Makatan	Makatan	MAKATAN	Makatan	Makatan		2006-09-15	1,2,3,4	1			1993-09-01		
3	6329930	6541299	16.558333	7.669722	16:33:30N	7:40:11E	32QLD5806331166	NE32-14	L	LCTY		NG	01				N				IGEREN	Igéren	Igeren	IGEREN	Igéren	Igeren		2006-09-15	1,2,3,4	1			1993-09-01		
3	6329932	6541301	16.530833	7.666389	16:31:51N	7:39:59E	32QLD5768728126	NE32-14	L	LCTY		NG	01				N				TAZEYT	Tazéyt	Tazeyt	TAZEYT	Tazéyt	Tazeyt		2006-09-15	1,2,3,4	1			1993-09-01		
3	6329934	6541303	16.605278	7.369167	16:36:19N	7:22:09E	32QLD2603036597	NE32-13	L	LCTY		NG	01				N				TATES	Tates	Tates	TATES	Tates	Tates		2006-09-15	1,2,3,4	1			1993-09-01		
3	6329941	6541310	16.638889	7.223333	16:38:20N	7:13:24E	32QLD1050240449	NE32-13	L	AREA		NG	01				N				ENAT	Enat	Enat	ENAT	Enat	Enat		2006-09-15	1,2,3,4	1			1993-09-01		
3	6336733	6552746	19.110556	9.12	19:06:38N	9:07:12E	32QNG1262213065	NE32-03	L	AREA		NG	01				N				IZANE	Izane	Izane	IZANE	Izane	Izane		2006-11-16	1,2,3,4	1			1993-09-01		
3	6334830	6547620	16.479444	5.633889	16:28:46N	5:38:02E	31QGU8120623804	NE31-16	L	LCTY		NG	06				N				CHINEGAYAT	Chinégayat	Chinegayat	CHINEGAYAT	Chinégayat	Chinegayat		2006-11-06	1,2,3,4	1			1993-09-01		
3	6334835	6547625	16.188333	5.837778	16:11:18N	5:50:16E	31QHT0343891864	NE31-16	L	LCTY		NG	06				N				INTAROUDA	I-n-Tarouda	I-n-Tarouda	INTAROUDA	I-n-Tarouda	I-n-Tarouda		2006-11-06	1,2,3,4	1			1993-09-01		
3	6334836	6547626	16.013056	5.785278	16:00:47N	5:47:07E	31QGT9808272379	NE31-16	L	LCTY		NG	06				N				ASSERERA	Asséréra	Asserera	ASSERERA	Asséréra	Asserera		2006-11-06	1,2,3,4	1			1993-09-01		
3	6334854	6547644	16.961111	5.916667	16:57:40N	5:55:00E	31QHU1063677561	NE31-16	L	AREA		NG	06				N				ELGHAFIAT	Elghafiat	Elghafiat	ELGHAFIAT	Elghafiat	Elghafiat		2006-11-06	1,2,3,4	1			1993-09-01		
3	6330180	6541603	17.974167	6.144167	17:58:27N	6:08:39E	32QJE9752889655	NE32-09	L	AREA		NG	01				N				TCHIGIGHNAME	Tchi Gighname	Tchi Gighname	TCHIGIGHNAME	Tchi Gighname	Tchi Gighname		2006-09-27	1,2,3,4	1			2006-09-26		
3	6330180	9331651	17.974167	6.144167	17:58:27N	6:08:39E	32QJE9752889655	NE32-09	L	AREA		NG	01				V				TCHIGIRHNAME	Tchi Girhname	Tchi Girhname	TCHIGIRHNAME	Tchi Girhname	Tchi Girhname		2006-09-27	1,2,3,4				2006-09-26		
3	6330182	9331662	17.893611	6.501389	17:53:37N	6:30:05E	32QKE3526480190	NE32-09	L	LCTY		NG	01				N				TAMATEDGHIT	Tamat Edghit	Tamat Edghit	TAMATEDGHIT	Tamat Edghit	Tamat Edghit		2006-09-27	1,2,3,4	1			2006-09-26		
3	6330182	6541605	17.893611	6.501389	17:53:37N	6:30:05E	32QKE3526480190	NE32-09	L	LCTY		NG	01				V				TAMATEDRHIT	Tamat Edrhit	Tamat Edrhit	TAMATEDRHIT	Tamat Edrhit	Tamat Edrhit		2006-09-27	1,2,3,4				2006-09-26		
3	6330183	6541606	17.969444	6.578333	17:58:10N	6:34:42E	32QKE4353088478	NE32-09	L	LCTY		NG	01				N				TASEDET	Tasédét	Tasedet	TASEDET	Tasédét	Tasedet		2006-09-19	1,2,3,4	1			1993-09-01		
3	6330184	6541607	17.941111	6.862778	17:56:28N	6:51:46E	32QKE7363084971	NE32-09	L	LCTY		NG	01				N				ASEKRA	Asekra	Asekra	ASEKRA	Asekra	Asekra		2006-09-19	1,2,3,4	1			1993-09-01		
3	6330185	6541608	17.453889	6.108611	17:27:14N	6:06:31E	32QJE9287432093	NE32-09	L	AREA		NG	01				N				BOUGA	Bouga	Bouga	BOUGA	Bouga	Bouga		2006-09-19	1,2,3,4	1			1993-09-01		
3	6330186	6541609	17.522222	6.914167	17:31:20N	6:54:51E	32QKE7856138541	NE32-09	L	LCTY		NG	01				N				EGIRMACH	Égirmach	Egirmach	EGIRMACH	Égirmach	Egirmach		2006-09-19	1,2,3,4	1			1993-09-01		
3	6330189	6541612	17.619444	6.583889	17:37:10N	6:35:02E	32QKE4361949720	NE32-09	L	LCTY		NG	01				N				AOUGESES	Aougésés	Aougeses	AOUGESES	Aougésés	Aougeses		2006-09-19	1,2,3,4	1			1993-09-01		
3	6330191	6541614	17.313333	6.423611	17:18:48N	6:25:25E	32QKE2614416051	NE32-09	L	AREA		NG	01				N				AZOULEMBI	Azoulémbi	Azoulembi	AZOULEMBI	Azoulémbi	Azoulembi		2006-09-19	1,2,3,4	1			1993-09-01		
3	6314900	6484049	16.455278	6.618056	16:27:19N	6:37:05E	32QKD4567520795	NE32-13	L	LCTY		NG	01				N				TAFASTOT	Tafastot	Tafastot	TAFASTOT	Tafastot	Tafastot		2006-06-27	1,2,3,4	1			1993-09-01		
3	6314902	6484051	16.468056	6.768889	16:28:05N	6:46:08E	32QKD6180322025	NE32-13	L	LCTY		NG	01				N				TESEKELWA	Tésékélwa	Tesekelwa	TESEKELWA	Tésékélwa	Tesekelwa		2006-06-27	1,2,3,4	1			1993-09-01		
3	6314904	6484053	16.735833	6.789722	16:44:09N	6:47:23E	32QKD6435551641	NE32-13	L	LCTY		NG	01				N				SIDWALES	Sidwalès	Sidwales	SIDWALES	Sidwalès	Sidwales		2006-06-27	1,2,3,4	1			1993-09-01		
3	6314906	6484055	16.673056	6.873056	16:40:23N	6:52:23E	32QKD7316844596	NE32-13	L	LCTY		NG	01				N				WARTETEZIL	Wartétézil	Wartetezil	WARTETEZIL	Wartétézil	Wartetezil		2006-06-27	1,2,3,4	1			1993-09-01		
3	6314908	6484057	16.584167	6.955556	16:35:03N	6:57:20E	32QKD8187034666	NE32-13	L	LCTY		NG	01				N				TAKNAWIN	Taknawin	Taknawin	TAKNAWIN	Taknawin	Taknawin		2006-06-27	1,2,3,4	1			1993-09-01		
3	6331658	6543279	17.123333	4.655833	17:07:24N	4:39:21E	31QFU7615793948	NE31-12	L	LCTY		NG	06				N				ATARAM	Ataram	Ataram	ATARAM	Ataram	Ataram		2006-10-13	1,2,3,4	1			1993-09-01		
3	6315634	6487856	17.178056	5.876389	17:10:41N	5:52:35E	31QHV0598801522	NE31-12	L	LCTY		NG	06				N				TINEDEBEL	Ti-n-Edebel	Ti-n-Edebel	TINEDEBEL	Ti-n-Edebel	Ti-n-Edebel		2006-06-30	1,2,3,4	1			1993-09-01		
3	6315651	6487873	17.118333	5.310556	17:07:06N	5:18:38E	31QGU4584494105	NE31-12	L	LCTY		NG	06				N				KIMBROOWATA	Kimbroowata	Kimbroowata	KIMBROOWATA	Kimbroowata	Kimbroowata		2006-06-30	1,2,3,4	1			1993-09-01		
3	6315652	6487874	17.081111	5.283056	17:04:52N	5:16:59E	31QGU4296589950	NE31-12	L	LCTY		NG	06				N				IKRENOUNTENE	Ikrenountene	Ikrenountene	IKRENOUNTENE	Ikrenountene	Ikrenountene		2006-06-30	1,2,3,4	1			1993-09-01		
3	6334981	6547771	16.055833	5.844444	16:03:21N	5:50:40E	31QHT0435477202	NE31-16	L	LCTY		NG	06				N				INTREJIRAT	I-n-Tréjirat	I-n-Trejirat	INTREJIRAT	I-n-Tréjirat	I-n-Trejirat		2006-11-06	1,2,3,4	1			1993-09-01		
3	6329970	6541339	16.380556	7.86	16:22:50N	7:51:36E	32QLD7825611373	NE32-14	L	LCTY		NG	01				N				EKEGI	Ekégi	Ekegi	EKEGI	Ekégi	Ekegi		2006-09-15	1,2,3,4	1			1993-09-01		
3	6329971	6541340	16.3875	7.899167	16:23:15N	7:53:57E	32QLD8244412118	NE32-14	L	LCTY		NG	01				N				EGEFEDRA	Égéfédra	Egefedra	EGEFEDRA	Égéfédra	Egefedra		2006-09-15	1,2,3,4	1			1993-09-01		
3	6329972	6541341	16.389722	7.778889	16:23:23N	7:46:44E	32QLD6959912437	NE32-14	L	LCTY		NG	01				N				TERZIKASAN	Terzikasan	Terzikasan	TERZIKASAN	Terzikasan	Terzikasan		2006-09-15	1,2,3,4	1			1993-09-01		
3	6329974	6541343	16.313889	7.880556	16:18:50N	7:52:50E	32QLD8041103985	NE32-14	L	LCTY		NG	01				N				EGEEFTEREJAM	Égéeftéréjam	Egeefterejam	EGEEFTEREJAM	Égéeftéréjam	Egeefterejam		2006-09-15	1,2,3,4	1			1993-09-01		
3	6329976	6541345	16.161944	7.823611	16:09:43N	7:49:25E	32QLC7423187208	NE32-14	L	LCTY		NG	01				N				ANYELI	Anyéli	Anyeli	ANYELI	Anyéli	Anyeli		2006-09-15	1,2,3,4	1			1993-09-01		
3	6329980	6541349	16.185556	7.535	16:11:08N	7:32:06E	32QLC4338890019	NE32-14	L	AREA		NG	01				N				TIMBAGOUTEN	Timbagoutén	Timbagouten	TIMBAGOUTEN	Timbagoutén	Timbagouten		2006-09-15	1,2,3,4	1			1993-09-01		
3	6329983	6541352	16.111944	7.674722	16:06:43N	7:40:29E	32QLC5827581773	NE32-14	L	LCTY		NG	01				N				SIKSI	Siksi	Siksi	SIKSI	Siksi	Siksi		2006-09-15	1,2,3,4	1			1993-09-01		
3	6329989	6541358	16.121667	7.443611	16:07:18N	7:26:37E	32QLC3356383021	NE32-13	L	LCTY		NG	01				N				ANTELENT	Antélént	Antelent	ANTELENT	Antélént	Antelent		2006-09-15	1,2,3,4	1			1993-09-01		
3	6329990	6541359	16.037778	7.460833	16:02:16N	7:27:39E	32QLC3533673725	NE32-13	L	LCTY		NG	01				N				TIJIGELT	Tijigélt	Tijigelt	TIJIGELT	Tijigélt	Tijigelt		2006-09-15	1,2,3,4	1			1993-09-01		
3	6329891	6541260	16.926389	7.822222	16:55:35N	7:49:20E	32QLD7457771787	NE32-14	L	LCTY		NG	01				N				INDOUANE	I-n-Douane	I-n-Douane	INDOUANE	I-n-Douane	I-n-Douane		2006-09-15	1,2	1			1993-09-01		
3	6329909	6541278	16.822778	7.820278	16:49:22N	7:49:13E	32QLD7430260325	NE32-14	L	LCTY		NG	01				N				TESSANHALLOU	Téssa-n-Hallou	Tessa-n-Hallou	TESSANHALLOU	Téssa-n-Hallou	Tessa-n-Hallou		2006-09-15	1,2	1			1993-09-01		
3	6329915	6541284	16.709722	7.778889	16:42:35N	7:46:44E	32QLD6981447842	NE32-14	L	AREA		NG	01				N				AZENAK	Azénak	Azenak	AZENAK	Azénak	Azenak		2006-09-15	1,2,3,4	1			1993-09-01		
3	6329916	6541285	16.737222	7.866667	16:44:14N	7:52:00E	32QLD7919150830	NE32-14	L	LCTY		NG	01				N				EMAGELEN	Emagelen	Emagelen	EMAGELEN	Emagelen	Emagelen		2006-09-15	1,2,3,4	1			1993-09-01		
3	6334904	6547694	16.0925	5.845	16:05:33N	5:50:42E	31QHT0435781263	NE31-16	L	LCTY		NG	06				N				ATTAYA	Attaya	Attaya	ATTAYA	Attaya	Attaya		2006-11-06	1,2,3,4	1			1993-09-01		
3	6334905	6547695	16.101667	5.763333	16:06:06N	5:45:48E	31QGT9560182159	NE31-16	L	LCTY		NG	06				N				INGHAGANE	I-n-Ghagane	I-n-Ghagane	INGHAGANE	I-n-Ghagane	I-n-Ghagane		2006-11-06	1,2,3,4	1			1993-09-01		
3	6334859	6547649	16.784444	5.716944	16:47:04N	5:43:01E	31QGU8962057693	NE31-16	L	AREA		NG	06				N				INKADOUDOUKOUM	I-n-Kadoudoukoum	I-n-Kadoudoukoum	INKADOUDOUKOUM	I-n-Kadoudoukoum	I-n-Kadoudoukoum		2006-11-06	1,2,3,4	1			1993-09-01		
3	6334867	6547657	16.929444	5.080278	16:55:46N	5:04:49E	31QGU2155572921	NE31-16	L	LCTY		NG	06				N				IRHAGANE	Ir Hagane	Ir Hagane	IRHAGANE	Ir Hagane	Ir Hagane		2006-11-06	1,2,3,4	1			1993-09-01		
3	6334872	6547662	16.83	5.1025	16:49:48N	5:06:09E	31QGU2404061939	NE31-16	L	LCTY		NG	06				N				TAACHEGANENE	Taachéganene	Taacheganene	TAACHEGANENE	Taachéganene	Taacheganene		2006-11-06	1,2,3,4	1			1993-09-01		
3	6334874	6547664	16.703611	5.424722	16:42:13N	5:25:29E	31QGU5856248341	NE31-16	L	LCTY		NG	06				N				TEHENDEMADOKI	Téhèndé Madoki	Tehende Madoki	TEHENDEMADOKI	Téhèndé Madoki	Tehende Madoki		2006-11-06	1,2,3,4	1			1993-09-01		
3	6375633	6603877	18.430833	9.404167	18:25:51N	9:24:15E	32QNF4268137900	NE32-07	L	AREA		NG	01				N				INZENA	I-n-Zèna	I-n-Zena	INZENA	I-n-Zèna	I-n-Zena		2007-01-22	1,2,3,4	1			1993-09-01		
3	6373310	6599576	18.61	8.516111	18:36:36N	8:30:58E	32QMF4895357745	NE32-06	L	AREA		NG	01				N				TEKNEOUINE	Tëknéouîne	Tekneouine	TEKNEOUINE	Tëknéouîne	Tekneouine		2007-01-17	1,2,3,4	1			1993-09-01		
3	6375616	6603860	18.876944	9.261667	18:52:37N	9:15:42E	32QNF2756187232	NE32-07	L	AREA		NG	01				N				ETAGHASNFRIGAL	Étaghas-n-Frigâl	Etaghas-n-Frigal	ETAGHASNFRIGAL	Étaghas-n-Frigâl	Etaghas-n-Frigal		2007-01-22	1,2,3,4	1			1993-09-01		
3	6373642	6599908	18.111389	8.649444	18:06:41N	8:38:58E	32QMF6291202545	NE32-06	L	AREA		NG	01				N				TENUGHARIT	Ténugharit	Tenugharit	TENUGHARIT	Ténugharit	Tenugharit		2007-01-17	1,2,3,4	1			1993-09-01		
3	6375676	6603920	18.375556	9.011389	18:22:32N	9:00:41E	32QNF0120331736	NE32-07	L	AREA		NG	01				N				INDERGANE	I-n-Dergane	I-n-Dergane	INDERGANE	I-n-Dergane	I-n-Dergane		2007-01-22	1,2,3,4	1			1993-09-01		
3	6373588	6599854	18.032222	8.223889	18:01:56N	8:13:26E	32QME1785293923	NE32-06	L	AREA		NG	01				N				ABIGGUI	Abiggui	Abiggui	ABIGGUI	Abiggui	Abiggui		2007-01-17	1,2,3,4	1			1993-09-01		
3	6383201	6618904	17.595833	9.639444	17:35:45N	9:38:22E	32QNE6784745585	NE32-11	L	AREA		NG	01				N				ISSEKNOUGGOUR	Issek-n-Ouggour	Issek-n-Ouggour	ISSEKNOUGGOUR	Issek-n-Ouggour	Issek-n-Ouggour		2007-02-13	1,2,3,4	1			1993-09-01		
3	6373426	6599692	18.337778	8.061667	18:20:16N	8:03:42E	32QMF0085327812	NE32-06	L	AREA		NG	01				N				TAOUANZAT	Taouanzat	Taouanzat	TAOUANZAT	Taouanzat	Taouanzat		2007-01-17	1,2,3,4	1			1993-09-01		
3	6383228	6618931	17.597778	9.146389	17:35:52N	9:08:47E	32QNE1553245692	NE32-11	L	LCTY		NG	01				N				AREBAT	Arébat	Arebat	AREBAT	Arébat	Arebat		2007-02-13	1,2,3,4	1			1993-09-01		
3	6409171	6746189	17.350556	8.311944	17:21:02N	8:18:43E	32QME2689718467	NE32-10	L	LCTY		NG	01				N				TATTA	Tatta	Tatta	TATTA	Tatta	Tatta		2007-04-27	1,2,3,4	1			2007-04-27		
3	9208250	9275897	19.066667	6.916667	19:04:00N	6:55:00E	32QKG8077909506	NE32-01	L	AREA		NG	01				N				BATALENE	Batalene	Batalene	BATALENE	Batalene	Batalene		2005-06-08	1,2,3,4	1			2005-05-10		
3	9207509	9275083	19.133333	5.2	19:08:00N	5:12:00E	31QGB3141017037	NE31-04	L	LCTY		NG	01				N				DAINI	Daïni	Daini	DAINI	Daïni	Daini		2005-06-08	1,2,3,4	1			2005-05-05		
3	6334973	6547763	16.205556	5.714722	16:12:20N	5:42:53E	31QGT9024693593	NE31-16	L	LCTY		NG	06				N				TCHINEZOURNANE	Tchi-n-Ezournane	Tchi-n-Ezournane	TCHINEZOURNANE	Tchi-n-Ezournane	Tchi-n-Ezournane		2006-11-06	1,2,3,4	1			1993-09-01		
3	6329962	6541331	16.239444	7.657778	16:14:22N	7:39:28E	32QLC5655595892	NE32-14	L	AREA		NG	01				N				ABELMA	Abelma	Abelma	ABELMA	Abelma	Abelma		2006-09-15	1,2,3,4	1			1993-09-01		
3	6330198	6541621	17.109167	6.985	17:06:33N	6:59:06E	32QKD8560592741	NE32-09	L	AREA		NG	01				N				EHABATA	Éhabata	Ehabata	EHABATA	Éhabata	Ehabata		2006-09-19	1,2,3,4	1			1993-09-01		
3	6330206	9331672	17.354167	6.929444	17:21:15N	6:55:46E	32QKE7998219922	NE32-09	L	AREA		NG	01				V				INGARHENBIWAN	In Garhen-Biwan	In Garhen-Biwan	INGARHENBIWAN	In Garhen-Biwan	In Garhen-Biwan		2006-09-27	1,2,3,4				2006-09-26		
3	6330206	6541629	17.354167	6.929444	17:21:15N	6:55:46E	32QKE7998219922	NE32-09	L	AREA		NG	01				N				INGAGHENBIOUAN	I-n-Gaghen-Biouan	I-n-Gaghen-Biouan	INGAGHENBIOUAN	I-n-Gaghen-Biouan	I-n-Gaghen-Biouan		2006-09-27	1,2,3,4	1			2006-09-26		
3	6334900	6547690	16.400833	5.612222	16:24:03N	5:36:44E	31QGU7900415071	NE31-16	L	LCTY		NG	06				N				ESSAILENE	Essaïlene	Essailene	ESSAILENE	Essaïlene	Essailene		2006-11-06	1,2,3,4	1			1993-09-01		
3	-1082386	-1605603	17.5925	6.773889	17:35:33N	6:46:26E	32QKE6375446490	NE32-09	L	LCTY		NG	01				V				IRAOUENZEGUIRANE	Iraouenzeguirane	Iraouenzeguirane	IRAOUENZEGUIRANE	Iraouenzeguirane	Iraouenzeguirane		2006-09-27	1,2,3,4,5				2006-09-26		
3	-1082386	-1605602	17.5925	6.773889	17:35:33N	6:46:26E	32QKE6375446490	NE32-09	L	LCTY		NG	01				V				MONTIRAOENZEGUIRAN	Mont Iraoenzeguiran	Mont Iraoenzeguiran	IRAOENZEGUIRAN MONT	Iraoenzeguiran, Mont	Iraoenzeguiran, Mont		2006-09-27	1,2,3,4,5				2006-09-26		
3	-1082386	6541646	17.5925	6.773889	17:35:33N	6:46:26E	32QKE6375446490	NE32-09	L	LCTY		NG	01				N				IGHAOUENZEGIGHAN	Ighaouenzégighan	Ighaouenzegighan	IGHAOUENZEGIGHAN	Ighaouenzégighan	Ighaouenzegighan		2006-09-27	1,2,3,4,5	1			2006-09-26		
3	-1082386	-1605615	17.5925	6.773889	17:35:33N	6:46:26E	32QKE6375446490	NE32-09	L	LCTY		NG	01				V				IRHAWENZEGIRHAN	Irhawenzégirhan	Irhawenzegirhan	IRHAWENZEGIRHAN	Irhawenzégirhan	Irhawenzegirhan		2006-09-27	1,2,3,4,5				2006-09-26		
3	9211839	9279790	20.074167	8.6825	20:04:27N	8:40:57E	32QMH6680319720	NF32-14	L	LCTY		NG	01				N				IMANENE	Imanene	Imanene	IMANENE	Imanene	Imanene		2007-03-05	1,2,3,4	1			2007-03-05		
3	6314895	6484044	16.280833	6.2975	16:16:51N	6:17:51E	32QKD1117201911	NE32-13	L	LCTY		NG	06				N				SAOUSOS	Saousos	Saousos	SAOUSOS	Saousos	Saousos		2006-06-27	1,2,3,4	1			1993-09-01		
3	6315583	6487804	17.641667	5.776111	17:38:30N	5:46:34E	31QGV9456952706	NE31-12	L	LCTY		NG	01				N				INKLOULAR	I-n-Kloular	I-n-Kloular	INKLOULAR	I-n-Kloular	I-n-Kloular		2006-06-30	1,2,3,4	1			1993-09-01		
3	6315607	6487829	17.536111	5.283056	17:32:10N	5:16:59E	31QGV4236740319	NE31-12	L	LCTY		NG	06				N				NFOUTALA	Nfoutala	Nfoutala	NFOUTALA	Nfoutala	Nfoutala		2006-06-30	1,2,3,4	1			1993-09-01		
3	6315614	6487836	17.48	5.458611	17:28:48N	5:27:31E	31QGV6109334340	NE31-12	L	AREA		NG	06				N				TASSATAKORAT	Tassa Takorat	Tassa Takorat	TASSATAKORAT	Tassa Takorat	Tassa Takorat		2006-06-30	1,2,3,4	1			1993-09-01		
3	6314417	6483301	18.179167	5.082778	18:10:45N	5:04:58E	31QGA2030411258	NE31-08	L	RGN		NG	01				N				CAHABLABIOD	Çâhab Labiod	Cahab Labiod	CAHABLABIOD	Çâhab Labiod	Cahab Labiod		2006-06-27	1,2,3,4	1			1993-09-01		
3	6314417	6483302	18.179167	5.082778	18:10:45N	5:04:58E	31QGA2030411258	NE31-08	L	RGN		NG	01				V				TISSAMAGHATINE	Tissamaghatine	Tissamaghatine	TISSAMAGHATINE	Tissamaghatine	Tissamaghatine		2006-06-27	1,2,3,4				1993-09-01		
3	6314926	6484075	16.939444	6.368889	16:56:22N	6:22:08E	32QKD1976474732	NE32-13	L	LCTY		NG	01				N				IRHAZERIZAN	Irhazérizan	Irhazerizan	IRHAZERIZAN	Irhazérizan	Irhazerizan		2006-06-27	1,2,3,4	1			1993-09-01		
3	6314934	6484083	16.931111	6.769722	16:55:52N	6:46:11E	32QKD6246573281	NE32-13	L	LCTY		NG	01				N				ARGEILA	Argéila	Argeila	ARGEILA	Argéila	Argeila		2006-06-27	1,2,3,4	1			1993-09-01		
3	6331327	6542885	17.110833	7.403056	17:06:39N	7:24:11E	32QLD3009892513	NE32-09	L	LCTY		NG	01				N				TCHINOUAKEROUI	Tchi-n-Ouakeroui	Tchi-n-Ouakeroui	TCHINOUAKEROUI	Tchi-n-Ouakeroui	Tchi-n-Ouakeroui		2006-10-03	1,2	1			1993-09-01		
3	6314198	6457375	16.867222	4.939167	16:52:02N	4:56:21E	31QGU0658965881	NE31-16	L	LCTY		NG	06				N				INIGLIMANE	I-n-Iglimane	I-n-Iglimane	INIGLIMANE	I-n-Iglimane	I-n-Iglimane		2006-06-22	1,2,3,4	1			1993-09-01		
3	6314050	6445636	18.006389	7.691944	18:00:23N	7:41:31E	32QLE6152191381	NE32-06	L	LCTY		NG	01				N				AGEBOUT	Agebout	Agebout	AGEBOUT	Agebout	Agebout		2006-06-20	1,2,3,4	1			1993-09-01		
3	6314057	6445643	18.314722	7.812222	18:18:53N	7:48:44E	32QLF7447625415	NE32-06	L	LCTY		NG	01				N				INGELACHA	I-n-Gélacha	I-n-Gelacha	INGELACHA	I-n-Gélacha	I-n-Gelacha		2006-06-20	1,2,3	1			1993-09-01		
3	6314887	6484036	16.090833	6.308889	16:05:27N	6:18:32E	32QKC1211480858	NE32-13	L	LCTY		NG	06				N				TIZIGARET	Tizigaret	Tizigaret	TIZIGARET	Tizigaret	Tizigaret		2006-06-27	1,2,3,4	1			1993-09-01		
3	9210721	9278609	19.088889	7.098889	19:05:20N	7:05:56E	32QKG9998611748	NE32-01	L	AREA		NG	01				N				BATALENE	Batalene	Batalene	BATALENE	Batalene	Batalene		2005-06-08	1,2,3,4	1			2005-05-27		
3	-1082813	-1606173	13.133333	8.783333	13:08:00N	8:47:00E	32PMV7651751891	ND32-10	L	RESP		NG	07				N				RONERAIEDEKARBATE	Rôneraie de Karbaté	Roneraie de Karbate	KARBATE RONERAIEDE	Karbaté, Rôneraie de	Karbate, Roneraie de		1993-12-18	1,2,3,4,5	1			1993-09-01		
3	-1082107	-1605133	17.769722	5.896944	17:46:11N	5:53:49E	31QHV0718167080	NE31-12	L	RGN		NG	01				N				IGUIDI	Iguidi	Iguidi	IGUIDI	Iguidi	Iguidi		2006-06-30	1,2,3,4,5	1			1993-09-01		
3	6383171	6618874	17.846667	9.060556	17:50:48N	9:03:38E	32QNE0641673223	NE32-11	L	AREA		NG	01				N				BARENGANI	Barengani	Barengani	BARENGANI	Barengani	Barengani		2007-02-13	1,2,3,4	1			1993-09-01		
3	6409223	6746241	17.397778	8.972778	17:23:52N	8:58:22E	32QME9710923560	NE32-10	L	LCTY		NG	01				N				TAFIR	Tafir	Tafir	TAFIR	Tafir	Tafir		2007-04-27	1,2,3,4	1			2007-04-27		
3	-1077267	-1598446	14.7	6	14:42:00N	6:00:00E	32PJB7690327293	ND32-05	L	RGN		NG	06				N				ADARDOUTCHI	Adar Doutchi	Adar Doutchi	ADARDOUTCHI	Adar Doutchi	Adar Doutchi		1997-03-07	1,2,3,4,5,6,7,8,9	1			1993-09-01		
3	6329914	6541283	16.830833	7.9375	16:49:51N	7:56:15E	32QLD8679861145	NE32-14	L	LCTY		NG	01				N				ADABONETIGHAL	Adabone Tighal	Adabone Tighal	ADABONETIGHAL	Adabone Tighal	Adabone Tighal		2006-09-15	1,2	1			1993-09-01		
3	6334980	6547770	16.015	5.816667	16:00:54N	5:49:00E	31QHT0144172640	NE31-16	L	LCTY		NG	06				N				TADIS	Tadis	Tadis	TADIS	Tadis	Tadis		2006-11-06	1,2,3,4	1			1993-09-01		
3	6331308	6542863	17.137778	7.482778	17:08:16N	7:28:58E	32QLD3860595427	NE32-09	L	AREA		NG	01				N				TOULOUK	Toulouk	Toulouk	TOULOUK	Toulouk	Toulouk		2006-10-03	1,2,3,4	1			1993-09-01		
3	6331313	6542868	17.217222	7.083333	17:13:02N	7:05:00E	32QKE9618904595	NE32-09	L	RGN		NG	01				N				GENEKEGHZIZ	Génékéghziz	Genekeghziz	GENEKEGHZIZ	Génékéghziz	Genekeghziz		2006-10-03	1,2,3,4	1			1993-09-01		
3	6331313	6542869	17.217222	7.083333	17:13:02N	7:05:00E	32QKE9618904595	NE32-09	L	RGN		NG	01				V				GENEKERHZIZ	Génékérhziz	Genekerhziz	GENEKERHZIZ	Génékérhziz	Genekerhziz		2006-10-03	1,2,3,4				1993-09-01		
3	6331325	6542883	17.098889	7.410278	17:05:56N	7:24:37E	32QLD3085691185	NE32-09	L	LCTY		NG	01				N				ACHOLAKA	Acholaka	Acholaka	ACHOLAKA	Acholaka	Acholaka		2006-10-03	1,2,3,4	1			1993-09-01		
3	6314055	6445641	18.2875	7.473611	18:17:15N	7:28:25E	32QLF3866122668	NE32-05	L	LCTY		NG	01				N				TEKKAT	Tekkat	Tekkat	TEKKAT	Tekkat	Tekkat		2006-06-20	1,2,3,4	1			1993-09-01		
3	6314163	6457338	16.078889	4.480833	16:04:44N	4:28:51E	31QFT5838978229	NE31-15	L	RGN		NG	06				N				AOUALAIFAD	Aoualaïfad	Aoualaifad	AOUALAIFAD	Aoualaïfad	Aoualaifad		2006-06-22	1,2,3,4	1			1993-09-01		
3	6314174	6457350	16.025833	4.357222	16:01:33N	4:21:26E	31QFT4520472268	NE31-15	L	LCTY		NG	06				N				BAKORAT	Bakorat	Bakorat	BAKORAT	Bakorat	Bakorat		2006-06-22	1,2,3,4	1			1993-09-01		
3	6314881	6484030	16.070278	6.850278	16:04:13N	6:51:01E	32QKC7003277904	NE32-13	L	LCTY		NG	01				N				TAMANKATEN	Tamankatén	Tamankaten	TAMANKATEN	Tamankatén	Tamankaten		2006-06-27	1,2,3,4	1			1993-09-01		
3	6334972	6547762	16.246944	5.708056	16:14:49N	5:42:29E	31QGT8947298166	NE31-16	L	LCTY		NG	06				N				INELOUENA	I-n-Elouéna	I-n-Elouena	INELOUENA	I-n-Elouéna	I-n-Elouena		2006-11-06	1,2,3,4	1			1993-09-01		
3	6334978	6547768	16.120833	5.935833	16:07:15N	5:56:09E	31QHT1403784537	NE31-16	L	LCTY		NG	06				N				INESGAR	I-n-Esgar	I-n-Esgar	INESGAR	I-n-Esgar	I-n-Esgar		2006-11-06	1,2,3,4	1			1993-09-01		
3	6329960	6541329	16.281667	7.596944	16:16:54N	7:35:49E	32QLD5008400607	NE32-14	L	LCTY		NG	01				N				MERIK	Mérik	Merik	MERIK	Mérik	Merik		2006-09-15	1,2,3,4	1			1993-09-01		
3	6329984	6541353	16.08	7.726944	16:04:48N	7:43:37E	32QLC6383978204	NE32-14	L	LCTY		NG	01				N				KATALA	Katala	Katala	KATALA	Katala	Katala		2006-09-15	1,2,3,4	1			1993-09-01		
3	6329991	6541360	16.209444	7.086667	16:12:34N	7:05:12E	32QKC9547293057	NE32-13	L	AREA		NG	01				N				IMATELTELEN	Imatéltélén	Imateltelen	IMATELTELEN	Imatéltélén	Imateltelen		2006-09-15	1,2,3,4	1			1993-09-01		
3	6330181	6541604	17.888056	6.23	17:53:17N	6:13:48E	32QKE0648379981	NE32-09	L	AREA		NG	01				V				INABANGARHIT	In-Abangarhit	In-Abangarhit	INABANGARHIT	In-Abangarhit	In-Abangarhit		2006-09-27	1,2,3,4				2006-09-26		
3	6330181	9331652	17.888056	6.23	17:53:17N	6:13:48E	32QKE0648379981	NE32-09	L	AREA		NG	01				N				INABANGAGHIT	In-Abangaghit	In-Abangaghit	INABANGAGHIT	In-Abangaghit	In-Abangaghit		2006-09-27	1,2,3,4	1			2006-09-26		
3	6330192	6541615	17.29	6.964444	17:17:24N	6:57:52E	32QKE8362712779	NE32-09	L	LCTY		NG	01				N				TEGESTNNAFEGAG	Tégest N. Nafegág	Tegest N. Nafegag	TEGESTNNAFEGAG	Tégest N. Nafegág	Tegest N. Nafegag		2006-09-19	1,2,3,4	1			1993-09-01		
3	6408989	6746007	17.866944	8.314167	17:52:01N	8:18:51E	32QME2734075598	NE32-10	L	LCTY		NG	01				N				AGALOUA	Agaloua	Agaloua	AGALOUA	Agaloua	Agaloua		2007-04-27	1,2,3,4	1			2007-04-27		
3	6373224	6599490	18.839444	8.222778	18:50:22N	8:13:22E	32QMF1811783242	NE32-06	L	AREA		NG	01				N				TEMELE	Témèlé	Temele	TEMELE	Témèlé	Temele		2007-01-17	1,2,3,4	1			1993-09-01		
3	6329931	6541300	16.529167	7.6925	16:31:45N	7:41:33E	32QLD6047227923	NE32-14	L	AREA		NG	01				N				KALAMA	Kalama	Kalama	KALAMA	Kalama	Kalama		2006-09-15	1,2,3,4	1			1993-09-01		
3	6334855	6547645	16.873611	5.941667	16:52:25N	5:56:30E	31QHU1344567910	NE31-16	L	AREA		NG	06				N				INTOURKAD	I-n-Tourkad	I-n-Tourkad	INTOURKAD	I-n-Tourkad	I-n-Tourkad		2006-11-06	1,2,3,4	1			1993-09-01		
3	6334939	6547729	16.553611	5.077778	16:33:13N	5:04:40E	31QGU2172331320	NE31-16	L	LCTY		NG	06				N				TIBALARE	Tibalaré	Tibalare	TIBALARE	Tibalaré	Tibalare		2006-11-06	1,2,3,4	1			1993-09-01		
3	6334944	6547734	16.217222	5.178333	16:13:02N	5:10:42E	31QGT3285794200	NE31-16	L	LCTY		NG	06				N				GHIZA	Ghiza	Ghiza	GHIZA	Ghiza	Ghiza		2006-11-06	1,2,3,4	1			1993-09-01		
3	6334960	6547750	16.355278	5.773056	16:21:19N	5:46:23E	31QGU9626210255	NE31-16	L	LCTY		NG	06				N				JOUREGUENE	Jouréguene	Joureguene	JOUREGUENE	Jouréguene	Joureguene		2006-11-06	1,2,3,4	1			1993-09-01		
3	-1082200	-1605289	16.057222	6.185	16:03:26N	6:11:06E	32QJC9880177313	NE32-13	L	LCTY		NG	06				N				INARHAMANE	I-n-Arhamane	I-n-Arhamane	INARHAMANE	I-n-Arhamane	I-n-Arhamane		2006-06-27	1,2,3,4,5	1			1993-09-01		
3	-1082200	-1605288	16.057222	6.185	16:03:26N	6:11:06E	32QJC9880177313	NE32-13	L	LCTY		NG	06				V				INARHAMAN	In-Arhaman	In-Arhaman	INARHAMAN	In-Arhaman	In-Arhaman		2006-06-27	1,2,3,4,5				1993-09-01		
3	6373261	6599527	18.704722	8.395556	18:42:17N	8:23:44E	32QMF3627068264	NE32-06	L	AREA		NG	01				N				EOUEI	Éoueï	Eouei	EOUEI	Éoueï	Eouei		2007-01-17	1,2,3,4	1			1993-09-01		
3	-1085591	-1609864	15.1	10.866667	15:06:00N	10:52:00E	32PQB0061870238	ND32-04	L	LCTY		NG	07				N				SARAGE	Sarage	Sarage	SARAGE	Sarage	Sarage		1993-12-18	1,2,3,4,5	1			1993-09-01		
3	6373597	6599863	18.185278	8.246944	18:11:07N	8:14:49E	32QMF2036110848	NE32-06	L	AREA		NG	01				N				OUAMIL	Ouamîl	Ouamil	OUAMIL	Ouamîl	Ouamil		2007-01-17	1,2,3,4	1			1993-09-01		
3	6375581	6603825	18.578333	9.0275	18:34:42N	9:01:39E	32QNF0290254172	NE32-07	L	AREA		NG	01				N				TESSANTAKANAI	Tessa-n-Takanaï	Tessa-n-Takanai	TESSANTAKANAI	Tessa-n-Takanaï	Tessa-n-Takanai		2007-01-22	1,2,3,4	1			1993-09-01		
3	-1087042	-1612052	16.515556	6.880278	16:30:56N	6:52:49E	32QKD7375527155	NE32-13	L	LCTY		NG	01				N				TOROF	Torof	Torof	TOROF	Torof	Torof		2006-06-27	1,2,3,4,5	1			1993-09-01		
3	-1082387	-1605604	19	7.416667	19:00:00N	7:25:00E	32QLG3333801577	NE32-01	L	RGN		NG	01				N				IRAOUITENE	Iraouitène	Iraouitene	IRAOUITENE	Iraouitène	Iraouitene		1993-12-18	1,2,3,4,5	1			1993-09-01		
3	6373146	6599412	18.911667	8.817222	18:54:42N	8:49:02E	32QMF8075291064	NE32-06	L	LCTY		NG	01				N				TCHIMILINE	Tchimiline	Tchimiline	TCHIMILINE	Tchimiline	Tchimiline		2007-01-17	1,2,3,4	1			1993-09-01		
3	-1084920	-1608997	14.283333	11.266667	14:17:00N	11:16:00E	32PQA4453380256	ND32-08	L	LCTY		NG	07				N				NGUELOUSSOU	Nguèl Oussou	Nguel Oussou	NGUELOUSSOU	Nguèl Oussou	Nguel Oussou		1993-12-18	1,2,3,4,5	1			1993-09-01		
3	6314886	6484035	16.0275	6.460833	16:01:39N	6:27:39E	32QKC2829273640	NE32-13	L	LCTY		NG	06				N				BAKACHACHI	Bakachachi	Bakachachi	BAKACHACHI	Bakachachi	Bakachachi		2006-06-27	1,2,3,4	1			1993-09-01		
3	6314899	6484048	16.437222	6.566111	16:26:14N	6:33:58E	32QKD4010218862	NE32-13	L	LCTY		NG	06				N				TCHIOUMOULOUBAT	Tchioumouloubat	Tchioumouloubat	TCHIOUMOULOUBAT	Tchioumouloubat	Tchioumouloubat		2006-06-27	1,2,3,4	1			1993-09-01		
3	6314397	6483275	18.585278	5.093611	18:35:07N	5:05:37E	31QGA2093256227	NE31-08	L	LCTY		NG	01				N				ELMEREYE	El Méréyé	El Mereye	ELMEREYE	El Méréyé	El Mereye		2006-06-27	1,2,3,4	1			1993-09-01		
3	6331282	6542832	17.247778	7.057222	17:14:52N	7:03:26E	32QKE9344508004	NE32-09	L	RGN		NG	01				N				TIELEKENI	Tiélékéni	Tielekeni	TIELEKENI	Tiélékéni	Tielekeni		2006-10-03	1,2,3,4	1			1993-09-01		
3	6330203	6541626	17.246667	6.734167	17:14:48N	6:44:03E	32QKE5908308256	NE32-09	L	LCTY		NG	01				N				MANDOSA	Mandosa	Mandosa	MANDOSA	Mandosa	Mandosa		2006-09-19	1,2,3,4	1			1993-09-01		
3	6331340	6542898	17.085556	7.070278	17:05:08N	7:04:13E	32QKD9465590036	NE32-09	L	LCTY		NG	01				N				TAGHARBOUCH	Tagharbouch	Tagharbouch	TAGHARBOUCH	Tagharbouch	Tagharbouch		2006-10-03	1,2	1			1993-09-01		
3	6331598	6543219	17.788611	4.4775	17:47:19N	4:28:39E	31QFV5661267416	NE31-11	L	LCTY		NG	06				N				ELGALLA	Elgalla	Elgalla	ELGALLA	Elgalla	Elgalla		2006-10-13	1,2,3,4	1			1993-09-01		
3	6334887	6547677	16.482222	5.827222	16:28:56N	5:49:38E	31QHU0185624392	NE31-16	L	LCTY		NG	06				N				ENERECHIL	Enéréchil	Enerechil	ENERECHIL	Enéréchil	Enerechil		2006-11-06	1,2,3,4	1			1993-09-01		
3	6334892	6547682	16.491111	5.761667	16:29:28N	5:45:42E	31QGU9483925279	NE31-16	L	LCTY		NG	06				N				EGHAGA	Eghaga	Eghaga	EGHAGA	Eghaga	Eghaga		2006-11-06	1,2,3,4	1			1993-09-01		
3	6334899	6547689	16.416944	5.556667	16:25:01N	5:33:24E	31QGU7304416779	NE31-16	L	LCTY		NG	06				N				TABAREGUED	Tabaréguèd	Tabaregued	TABAREGUED	Tabaréguèd	Tabaregued		2006-11-06	1,2,3,4	1			1993-09-01		
3	6329890	6541259	16.928889	7.753333	16:55:44N	7:45:12E	32QLD6724272109	NE32-14	L	LCTY		NG	01				N				TADANT	Tadant	Tadant	TADANT	Tadant	Tadant		2006-09-15	1,2	1			1993-09-01		
3	-1079176	-1601159	15.016667	10.383333	15:01:00N	10:23:00E	32PPB4872060635	ND32-03	L	LCTY		NG	07				V				DALGIAN	Dalgian	Dalgian	DALGIAN	Dalgian	Dalgian		1993-12-18	1,2,3,4,5				1993-09-01		
3	-1079176	-1601160	15.016667	10.383333	15:01:00N	10:23:00E	32PPB4872060635	ND32-03	L	LCTY		NG	07				N				DALGUIAN	Dalguian	Dalguian	DALGUIAN	Dalguian	Dalguian		1993-12-18	1,2,3,4,5	1			1993-09-01		
3	6313588	6407667	18.24	6.913333	18:14:24N	6:54:48E	32QKF7936117996	NE32-05	L	LCTY		NG	01				N				TECHILI	Téchili	Techili	TECHILI	Téchili	Techili		2006-06-08	1,2,3,4	1			1993-09-01		
3	6315573	6487793	17.894167	5.4825	17:53:39N	5:28:57E	31QGV6302780228	NE31-12	L	RGN		NG	01				N				TAMAYA	Tamaya	Tamaya	TAMAYA	Tamaya	Tamaya		2006-06-30	1,2,3,4	1			1993-09-01		
3	6314916	6484065	16.559444	6.373611	16:33:34N	6:22:25E	32QKD1971132651	NE32-13	L	LCTY		NG	06				N				INTAHRIWA	I-n-Tahriwa	I-n-Tahriwa	INTAHRIWA	I-n-Tahriwa	I-n-Tahriwa		2006-06-27	1,2,3,4	1			1993-09-01		
3	6314922	6484071	16.796944	6.076111	16:47:49N	6:04:34E	32QJD8832559392	NE32-13	L	LCTY		NG	06				N				AINTOUFAYEN	’Aïn Toufayén	'Ain Toufayen	AINTOUFAYEN	’Aïn Toufayén	'Ain Toufayen		2006-06-27	1,2,3,4	1			1993-09-01		
3	6314925	6484074	16.948889	6.405556	16:56:56N	6:24:20E	32QKD2368575726	NE32-13	L	LCTY		NG	01				N				ATERETARA	Atérétara	Ateretara	ATERETARA	Atérétara	Ateretara		2006-06-27	1,2,3,4	1			1993-09-01		
3	-1086718	-1611493	18.261389	7.912222	18:15:41N	7:54:44E	32QLF8501019447	NE32-06	L	LCTY		NG	01				N				TIGANOUT	Tiganout	Tiganout	TIGANOUT	Tiganout	Tiganout		2006-06-20	1,2,3,4,5	1			1993-09-01		
1	10067790	10253696	14.732	5.2582	14:43:55N	5:15:30E	31PGS4312829903	ND31-08	L	LCTY		NG	06				N				AGEY	Agéy	Agey	AGEY	Agéy	Agey		2007-11-30	1,2,3,4	1			2007-11-30		
3	10206150	10516169	15.74619	13.708189	15:44:46N	13:42:29E	33PUT6160441284	ND33-02	L	LCTY		NG	02				N				OUMHADJER	Oum Hadjer	Oum Hadjer	OUMHADJER	Oum Hadjer	Oum Hadjer		2008-06-13	1,2,3,4	1			2008-06-13		
1	10206158	10516177	15.752659	13.408755	15:45:10N	13:24:32E	33PUT2952442219	ND33-01	L	LCTY		NG	02				N				IMARI	Imari	Imari	IMARI	Imari	Imari		2008-06-13	1,2,3,4	1			2008-06-13		
1	10085084	10299590	15.900176	11.233807	15:54:01N	11:14:02E	32PQC3916959171	ND32-04	L	LCTY		NG	07				N				DIOROTIOUWIHANGA	Dioro Tiouwi Hanga	Dioro Tiouwi Hanga	DIOROTIOUWIHANGA	Dioro Tiouwi Hanga	Dioro Tiouwi Hanga		2008-01-29	1,2,3,4	1			2008-01-29		
3	-1078945	-1600840	14.7619	3.8034	14:45:43N	3:48:12E	31PES8646932146	ND31-07	L	LCTY		NG	09				N				BOURIADJE	Bouriadjé	Bouriadje	BOURIADJE	Bouriadjé	Bouriadje		2008-01-29	1,2,3,4,5	1			1993-09-01		
1	-1082893	-1606280	14.7388	3.5651	14:44:20N	3:33:54E	31PES6082629513	ND31-07	L	LCTY		NG	09				V				KASSOULA	Kassoula	Kassoula	KASSOULA	Kassoula	Kassoula		2008-01-29	1,2,3,4,5				2008-01-29		
1	-1082893	-1606253	14.7388	3.5651	14:44:20N	3:33:54E	31PES6082629513	ND31-07	L	LCTY		NG	09				N				KASOULA	Kasoula	Kasoula	KASOULA	Kasoula	Kasoula		2008-01-29	1,2,3,4,5	1			2008-01-29		
1	10084780	10299231	14.0267	3.1537	14:01:36N	3:09:13E	31PER1659650685	ND31-07	L	LCTY		NG	09				N				ALEMANGI	Alémangi	Alemangi	ALEMANGI	Alémangi	Alemangi		2008-01-29	1,2,3,4	1			2008-01-29		
1	10206279	10516298	15.096	13.051312	15:05:46N	13:03:05E	33PTS9056069872	ND33-01	L	LCTY		NG	02				N				ANECHIA	Anéchia	Anechia	ANECHIA	Anéchia	Anechia		2008-06-13	1,2,3,4	1			2008-06-13		
1	10206278	10516297	15.064075	13.088036	15:03:51N	13:05:17E	33PTS9447866304	ND33-01	L	LCTY		NG	02				N				NGUELSANI	Nguèl Sani	Nguel Sani	NGUELSANI	Nguèl Sani	Nguel Sani		2008-06-13	1,2,3,4	1			2008-06-13		
1	10085187	10299750	15.645651	11.468238	15:38:44N	11:28:06E	32PQC6461131278	ND32-04	L	LCTY		NG	07				N				OURDIDINGA	Ourdidinga	Ourdidinga	OURDIDINGA	Ourdidinga	Ourdidinga		2008-01-30	1,2,3,4	1			2008-02-05		
3	-1085375	-1609583	14.6739	3.7984	14:40:26N	3:47:54E	31PES8596522410	ND31-07	L	LCTY		NG	09				N				SABARE	Sabaré	Sabare	SABARE	Sabaré	Sabare		2008-01-29	1,2,3,4,5	1			1993-09-01		
3	-1078715	-1600527	14.5879	3.6791	14:35:16N	3:40:45E	31PES7314812856	ND31-07	L	LCTY		NG	09				N				BOBOKYA	Bobokya	Bobokya	BOBOKYA	Bobokya	Bobokya		2008-01-29	1,2,3,4,5	1			1993-09-01		
1	10084719	10299170	14.7768	3.8736	14:46:36N	3:52:25E	31PES9401833822	ND31-07	L	LCTY		NG	09				N				TABKINMADOUBA	Tabkin Madouba	Tabkin Madouba	TABKINMADOUBA	Tabkin Madouba	Tabkin Madouba		2008-01-29	1,2,3,4	1			2008-01-29		
1	10085181	10299744	15.84545	11.347201	15:50:44N	11:20:50E	32PQC5138353247	ND32-04	L	LCTY		NG	07				N				CHEGUELENGA	Chéguélènga	Cheguelenga	CHEGUELENGA	Chéguélènga	Cheguelenga		2008-01-30	1,2,3,4	1			2008-01-30		
1	10081642	10290240	15.5886	4.791	15:35:19N	4:47:28E	31PFT9203624236	ND31-04	L	LCTY		NG	06				N				AFALA	Afala	Afala	AFALA	Afala	Afala		2008-01-15	1,2,3,4	1			2008-01-15		
1	10085180	10299743	15.974871	11.310595	15:58:30N	11:18:38E	32PQC4730267529	ND32-04	L	LCTY		NG	07				N				GUEROKARKAMAN	Guero Karkaman	Guero Karkaman	GUEROKARKAMAN	Guero Karkaman	Guero Karkaman		2008-01-30	1,2,3,4	1			2008-01-30		
3	10206139	10516158	15.969603	13.783516	15:58:11N	13:47:01E	33PUT6981865953	ND33-02	L	LCTY		NG	02				N				SOUAKA	Souaka	Souaka	SOUAKA	Souaka	Souaka		2008-06-13	1,2,3,4	1			2008-06-13		
1	10206276	10516295	15.029759	13.100925	15:01:47N	13:06:03E	33PTS9583162495	ND33-01	L	LCTY		NG	02				N				KOANIA	Koania	Koania	KOANIA	Koania	Koania		2008-06-13	1,2,3,4	1			2008-06-13		
1	-1081816	-1604765	13.630269	6.641106	13:37:49N	6:38:28E	32PKA4479508075	ND32-09	L	RESF		NG	04				N				FORETCLASSEEDEGUIDANROUMJI	Forêt Classée de Guidan Roumji	Foret Classee de Guidan Roumji	GUIDANROUMJI FORETCLASSEEDE	Guidan Roumji, Forêt Classée de	Guidan Roumji, Foret Classee de		2008-02-08	1,2,3,4,5	1			2008-02-11		
1	-1081816	-1603703	13.630269	6.641106	13:37:49N	6:38:28E	32PKA4479508075	ND32-09	L	RESF		NG	04				V				FORETCLASSEEDEGIDANROUMJI	Forêt Classée de Gidan Roumji	Foret Classee de Gidan Roumji	GIDANROUMJI FORETCLASSEEDE	Gidan Roumji, Forêt Classée de	Gidan Roumji, Foret Classee de		2008-02-08	1,2,3,4,5				2008-02-19		
1	10113714	10345738	13.356453	7.099038	13:21:23N	7:05:57E	32PKV9412177344	ND32-09	L	AREA		NG	04				N				GOULBI	Goulbi	Goulbi	GOULBI	Goulbi	Goulbi		2008-02-20	1,2,3,4	1			2008-02-20		
3	-1083585	-1607217	13.761586	7.010742	13:45:42N	7:00:39E	32PKA8492022248	ND32-09	L	RESF		NG	04				V				FORETCLASSEEDEKOUROUNGOUSA	Forêt Classée de Kouroungousa	Foret Classee de Kouroungousa	KOUROUNGOUSA FORETCLASSEEDE	Kouroungousa, Forêt Classée de	Kouroungousa, Foret Classee de		2008-02-13	1,2,3,4,5				1993-09-01		
1	-1083585	-1607219	13.761586	7.010742	13:45:42N	7:00:39E	32PKA8492022248	ND32-09	L	RESF		NG	04				V				FORETCLASSEEDEKOUROUNGOUSSA	Forêt Classée de Kouroungoussa	Foret Classee de Kouroungoussa	KOUROUNGOUSSA FORETCLASSEEDE	Kouroungoussa, Forêt Classée de	Kouroungoussa, Foret Classee de		2008-02-13	1,2,3,4,5				2008-02-13		
1	-1083585	10334953	13.761586	7.010742	13:45:42N	7:00:39E	32PKA8492022248	ND32-09	L	RESF		NG	04				N			Forêt Classée	FORETCLASSEEDEKOUROUNGOUSSAOU	Forêt Classée de Kouroungoussaou	Foret Classee de Kouroungoussaou	KOUROUNGOUSSAOU FORETCLASSEEDE	Kouroungoussaou, Forêt Classée de	Kouroungoussaou, Foret Classee de		2008-02-13	1,2,3,4,5	1			2008-02-13		
1	-1081290	-1604178	15.6669	6.1802	15:40:01N	6:10:49E	32PJC9770534100	ND32-01	L	LCTY		NG	06				V				GUERZAO	Guerzao	Guerzao	GUERZAO	Guerzao	Guerzao		2008-02-19	1,2,3,4,5				2008-02-19		
1	-1081290	-1603564	15.6669	6.1802	15:40:01N	6:10:49E	32PJC9770534100	ND32-01	L	LCTY		NG	06				N				GERZAO	Gérzao	Gerzao	GERZAO	Gérzao	Gerzao		2008-02-19	1,2,3,4,5	1			2008-02-19		
3	-1082583	-1605872	15.2318	6.361	15:13:54N	6:21:40E	32PKB1650985680	ND32-01	L	LCTY		NG	06				N				KAKA	Kaka	Kaka	KAKA	Kaka	Kaka		2008-02-19	1,2,3,4,5	1			1993-09-01		
3	-1087249	-1612323	15.9411	6.5161	15:56:28N	6:30:58E	32PKC3409564004	ND32-01	L	LCTY		NG	06				N				TSOUWINERA	Tsouwinéra	Tsouwinera	TSOUWINERA	Tsouwinéra	Tsouwinera		2008-02-19	1,2,3,4,5	1			1993-09-01		
3	-1082286	-1605439	15.8409	6.0135	15:50:27N	6:00:49E	32PJC8009453614	ND32-01	L	LCTY		NG	06				N				INNEDREM	I-n-Nédrèm	I-n-Nedrem	INNEDREM	I-n-Nédrèm	I-n-Nedrem		2008-02-19	1,2,3,4,5	1			1993-09-01		
1	-1082286	10342519	15.8409	6.0135	15:50:27N	6:00:49E	32PJC8009453614	ND32-01	L	LCTY		NG	06				V				INNEDREM	In Nédrèm	In Nedrem	INNEDREM	In Nédrèm	In Nedrem		2008-02-19	1,2,3,4,5				2008-02-19		
1	-1083915	-1607672	13.344086	7.157959	13:20:39N	7:09:29E	32PLV0049475928	ND32-09	L	RESF		NG	04				V				FORETCLASSEEDEMADAROUMFA	Forêt Classée de Madaroumfa	Foret Classee de Madaroumfa	MADAROUMFA FORETCLASSEEDE	Madaroumfa, Forêt Classée de	Madaroumfa, Foret Classee de		2008-02-21	1,2,3,4,5				2008-02-21		
1	-1083915	-1607674	13.344086	7.157959	13:20:39N	7:09:29E	32PLV0049475928	ND32-09	L	RESF		NG	04				N			Forêt Classée	FORETCLASSEEDEMADAROUNFA	Forêt Classée de Madarounfa	Foret Classee de Madarounfa	MADAROUNFA FORETCLASSEEDE	Madarounfa, Forêt Classée de	Madarounfa, Foret Classee de		2008-02-21	1,2,3,4,5	1			2008-02-21		
3	-1080545	-1603003	13.254913	7.06556	13:15:18N	7:03:56E	32PKV9040766137	ND32-09	L	RESF		NG	04				N			Forêt Classée	FORETCLASSEEDEGABINORD	Forêt Classée de Gabi-Nord	Foret Classee de Gabi-Nord	GABINORD FORETCLASSEEDE	Gabi-Nord, Forêt Classée de	Gabi-Nord, Foret Classee de		2008-02-19	1,2,3,4,5	1			1993-09-01		
1	10107789	10335631	13.741388	7.090425	13:44:29N	7:05:26E	32PKA9352119943	ND32-09	L	LCTY		NG	04				N				MAYKAWA	May Kawa	May Kawa	MAYKAWA	May Kawa	May Kawa		2008-02-13	1,2,3,4	1			2008-02-13		
1	10112600	10342490	15.3801	6.0618	15:22:48N	6:03:42E	32PJC8456702514	ND32-01	L	AREA		NG	06				N				TATAWASSEN	Tatawassèn	Tatawassen	TATAWASSEN	Tatawassèn	Tatawassen		2008-02-19	1,2,3,4	1			2008-02-19		
3	-1086194	-1610686	15.9516	6.0558	15:57:06N	6:03:21E	32PJC8480165809	ND32-01	L	LCTY		NG	06				N				TAMALGOS	Tamalgos	Tamalgos	TAMALGOS	Tamalgos	Tamalgos		2008-02-19	1,2,3,4,5	1			1993-09-01		
3	-1086014	-1610436	15.6671	6.3739	15:40:02N	6:22:26E	32PKC1848433855	ND32-01	L	LCTY		NG	06				N				TAGALALT	Tagalalt	Tagalalt	TAGALALT	Tagalalt	Tagalalt		2008-02-19	1,2,3,4,5	1			1993-09-01		
3	-1086359	-1610938	15.9446	6.3183	15:56:41N	6:19:06E	32PKC1291264654	ND32-01	L	LCTY		NG	06				N				TASKANGAO	Taskangao	Taskangao	TASKANGAO	Taskangao	Taskangao		2008-02-19	1,2,3,4,5	1			1993-09-01		
3	-1082356	-1605547	15.9464	6.1795	15:56:47N	6:10:46E	32PJC9804665050	ND32-01	L	LCTY		NG	06				V				INTELAN	In Télan	In Telan	INTELAN	In Télan	In Telan		2008-02-19	1,2,3,4,5				1993-09-01		
1	-1082356	-1605548	15.9464	6.1795	15:56:47N	6:10:46E	32PJC9804665050	ND32-01	L	LCTY		NG	06				V				INTELANE	I-n-Télane	I-n-Telane	INTELANE	I-n-Télane	I-n-Telane		2008-02-19	1,2,3,4,5				2008-02-19		
1	-1082356	10342509	15.9464	6.1795	15:56:47N	6:10:46E	32PJC9804665050	ND32-01	L	LCTY		NG	06				N				INTELAN	I-n-Télan	I-n-Telan	INTELAN	I-n-Télan	I-n-Telan		2008-02-19	1,2,3,4,5	1			2008-02-19		
3	-1082351	-1605535	15.6347	6.1666	15:38:05N	6:10:00E	32PJC9619930554	ND32-01	L	LCTY		NG	06				V				INTEDAN	In Tédan	In Tedan	INTEDAN	In Tédan	In Tedan		2008-02-19	1,2,3,4,5				1993-09-01		
1	-1082351	-1605536	15.6347	6.1666	15:38:05N	6:10:00E	32PJC9619930554	ND32-01	L	LCTY		NG	06				V				INTEDANE	I-n-Tédane	I-n-Tedane	INTEDANE	I-n-Tédane	I-n-Tedane		2008-02-19	1,2,3,4,5				2008-02-19		
1	-1082351	10342510	15.6347	6.1666	15:38:05N	6:10:00E	32PJC9619930554	ND32-01	L	LCTY		NG	06				N				INTEDAN	I-n-Tédan	I-n-Tedan	INTEDAN	I-n-Tédan	I-n-Tedan		2008-02-19	1,2,3,4,5	1			2008-02-19		
3	-1077465	-1598742	15.8917	6.2361	15:53:30N	6:14:10E	32PKC0402958912	ND32-01	L	LCTY		NG	06				N				AKOKO	Akoko	Akoko	AKOKO	Akoko	Akoko		2008-02-19	1,2,3,4,5	1			1993-09-01		
3	-1077412	-1598664	15.3181	6.7176	15:19:05N	6:43:03E	32PKB5493594800	ND32-01	L	LCTY		NG	04				N				AHANGOE	Ahangoé	Ahangoe	AHANGOE	Ahangoé	Ahangoe		2008-02-19	1,2,3,4,5	1			1993-09-01		
3	-1082677	-1605995	13.14036	7.419358	13:08:25N	7:25:10E	32PLV2867053195	ND32-09	L	RESF		NG	04				N			Forêt Classée	FORETCLASSEEDEKANDAMAO	Forêt Classée de Kandamao	Foret Classee de Kandamao	KANDAMAO FORETCLASSEEDE	Kandamao, Forêt Classée de	Kandamao, Foret Classee de		2008-02-25	1,2,3,4,5	1			1993-09-01		
1	-1086594	-1611290	15.125849	10.154492	15:07:33N	10:09:16E	32PPB2405172572	ND32-03	L	LCTY		NG	07				N				TERAMJELAWI	Téram Jélawi	Teram Jelawi	TERAMJELAWI	Téram Jélawi	Teram Jelawi		2008-02-20	1,2,3,4,5	1			2008-02-20		
1	10120082	10358548	13.515557	8.329335	13:30:56N	8:19:46E	32PMV2742494250	ND32-10	L	LCTY		NG	04				N				RIGAJEKAORE	Rigajé Kaoré	Rigaje Kaore	RIGAJEKAORE	Rigajé Kaoré	Rigaje Kaore		2008-04-04	1,2,3	1			2008-04-04		
1	10121827	10361402	13.921322	8.340884	13:55:17N	8:20:27E	32PMA2879639123	ND32-10	L	LCTY		NG	04				N				KANIA	Kania	Kania	KANIA	Kania	Kania		2008-02-27	1,2,3,4	1			2008-02-27		
3	-1078162	-1599765	13.338078	7.637783	13:20:17N	7:38:16E	32PLV5246974928	ND32-10	L	RESF		NG	04				N			Forêt Classée	FORETCLASSEEDEBAKABE	Forêt Classée de Bakabé	Foret Classee de Bakabe	BAKABE FORETCLASSEEDE	Bakabé, Forêt Classée de	Bakabe, Foret Classee de		2008-02-27	1,2,3,4,5	1			1993-09-01		
3	-1086267	-1610787	15.4424	6.1843	15:26:33N	6:11:03E	32PJC9781709237	ND32-01	L	LCTY		NG	06				N				TANFARKAS	Tanfarkas	Tanfarkas	TANFARKAS	Tanfarkas	Tanfarkas		2008-02-19	1,2,3,4,5	1			1993-09-01		
3	-1085463	-1609710	15.9094	6.2821	15:54:34N	6:16:56E	32PKC0898460807	ND32-01	L	LCTY		NG	06				N				SAKANGOTE	Sakangoté	Sakangote	SAKANGOTE	Sakangoté	Sakangote		2008-02-19	1,2,3,4,5	1			1993-09-01		
3	-1079040	-1600974	15.8268	6.4185	15:49:36N	6:25:07E	32PKC2348451477	ND32-01	L	LCTY		NG	06				N				CHIBORANE	Chiborané	Chiborane	CHIBORANE	Chiborané	Chiborane		2008-02-19	1,2,3,4,5	1			1993-09-01		
1	10122257	10361909	13.834449	8.196172	13:50:04N	8:11:46E	32PMA1313029563	ND32-10	L	LCTY		NG	04				N				BOKOYA	Bokoya	Bokoya	BOKOYA	Bokoya	Bokoya		2008-02-27	1,2,3,4	1			2008-02-27		
1	10112609	10342499	15.1878	6.727	15:11:16N	6:43:37E	32PKB5579480367	ND32-01	L	AREA		NG	04				N				KORENGADEJI	Korén Gadéji	Koren Gadeji	KORENGADEJI	Korén Gadéji	Koren Gadeji		2008-02-19	1,2,3,4	1			2008-02-19		
3	-1082477	-1605744	15.4235	6.3742	15:25:25N	6:22:27E	32PKC1818506886	ND32-01	L	LCTY		NG	06				N				JINJELOTI	Jinjéloti	Jinjeloti	JINJELOTI	Jinjéloti	Jinjeloti		2008-02-19	1,2,3,4,5	1			1993-09-01		
3	-1082430	-1605687	15.9462	6.2233	15:56:46N	6:13:24E	32PKC0273864964	ND32-01	L	LCTY		NG	06				N				JABONGOR	Jabongor	Jabongor	JABONGOR	Jabongor	Jabongor		2008-02-19	1,2,3,4,5	1			1993-09-01		
3	-1082375	-1605576	15.851	6.0636	15:51:04N	6:03:49E	32PJC8548054657	ND32-01	L	LCTY		NG	06				V				INTIRJAWI	In Tirjawi	In Tirjawi	INTIRJAWI	In Tirjawi	In Tirjawi		2008-02-19	1,2,3,4,5				1993-09-01		
1	-1082375	-1605575	15.851	6.0636	15:51:04N	6:03:49E	32PJC8548054657	ND32-01	L	LCTY		NG	06				V				INTIRJAOUI	I-n-Tirjaoui	I-n-Tirjaoui	INTIRJAOUI	I-n-Tirjaoui	I-n-Tirjaoui		2008-02-19	1,2,3,4,5				2008-02-19		
1	-1082375	10342504	15.851	6.0636	15:51:04N	6:03:49E	32PJC8548054657	ND32-01	L	LCTY		NG	06				N				INTIRJAWI	I-n-Tirjawi	I-n-Tirjawi	INTIRJAWI	I-n-Tirjawi	I-n-Tirjawi		2008-02-19	1,2,3,4,5	1			2008-02-19		
1	10121945	10361591	13.898003	8.233208	13:53:53N	8:14:00E	32PMA1715536579	ND32-10	L	LCTY		NG	04				N				MAYGUIJE	May Guijé	May Guije	MAYGUIJE	May Guijé	May Guije		2008-02-27	1,2,3,4	1			2008-02-27		
1	10121948	10361595	13.892288	8.181541	13:53:32N	8:10:54E	32PMA1157035966	ND32-10	L	LCTY		NG	04				N				FADIANZABI	Fadian Zabi	Fadian Zabi	FADIANZABI	Fadian Zabi	Fadian Zabi		2008-02-27	1,2,3,4	1			2008-02-27		
3	-1083243	-1606766	13.754573	8.269816	13:45:16N	8:16:11E	32PMA2106220703	ND32-10	L	RESF		NG	04				N			Forêt Classée	FORETCLASSEEDEKONGOME	Forêt Classée de Kongomé	Foret Classee de Kongome	KONGOME FORETCLASSEEDE	Kongomé, Forêt Classée de	Kongome, Foret Classee de		2008-02-21	1,2,3,4,5	1			1993-09-01		
3	-1078995	-1600913	13.734089	8.221065	13:44:03N	8:13:16E	32PMA1578418454	ND32-10	L	RESF		NG	04				N			Forêt Classée	FORETCLASSEEDECHABARE	Forêt Classée de Chabaré	Foret Classee de Chabare	CHABARE FORETCLASSEEDE	Chabaré, Forêt Classée de	Chabare, Foret Classee de		2008-02-21	1,2,3,4,5	1			1993-09-01		
3	-1079608	-1601670	13.450245	8.55142	13:27:01N	8:33:05E	32PMV5144486972	ND32-10	L	RESF		NG	07				N			Forêt Classée	FORETCLASSEEDEDASGA	Forêt Classée de Dasga	Foret Classee de Dasga	DASGA FORETCLASSEEDE	Dasga, Forêt Classée de	Dasga, Foret Classee de		2008-04-04	1,2,3,4,5	1			1993-09-01		
3	-1082197	-1605303	15.873	6.1702	15:52:23N	6:10:13E	32PJC9693956936	ND32-01	L	LCTY		NG	06				V				INAWARA	In Awara	In Awara	INAWARA	In Awara	In Awara		2008-02-19	1,2,3,4,5				1993-09-01		
1	-1082197	-1605283	15.873	6.1702	15:52:23N	6:10:13E	32PJC9693956936	ND32-01	L	LCTY		NG	06				V				INAOUARA	I-n-Aouara	I-n-Aouara	INAOUARA	I-n-Aouara	I-n-Aouara		2008-02-19	1,2,3,4,5				2008-02-19		
1	-1082197	10342529	15.873	6.1702	15:52:23N	6:10:13E	32PJC9693956936	ND32-01	L	LCTY		NG	06				N				INAWARA	I-n-Awara	I-n-Awara	INAWARA	I-n-Awara	I-n-Awara		2008-02-19	1,2,3,4,5	1			2008-02-19		
3	-1086136	-1610610	13.658341	8.551007	13:39:30N	8:33:04E	32PMA5144209986	ND32-10	L	RESF		NG	07				N			Forêt Classée	FORETCLASSEEDETAKIETA	Forêt Classée de Takiéta	Foret Classee de Takieta	TAKIETA FORETCLASSEEDE	Takiéta, Forêt Classée de	Takieta, Foret Classee de		2008-04-04	1,2,3,4,5	1			1993-09-01		
1	10121209	10360499	13.325538	7.522207	13:19:32N	7:31:20E	32PLV3994273612	ND32-10	L	LCTY		NG	04				N				DAJINMATO	Dajin Mato	Dajin Mato	DAJINMATO	Dajin Mato	Dajin Mato		2008-02-27	1,2,3,4	1			2008-02-27		
3	-1080546	-1603004	13.187357	7.040731	13:11:14N	7:02:27E	32PKV8765758683	ND32-09	L	RESF		NG	04				N			Forêt Classée	FORETCLASSEEDEGABISUD	Forêt Classée de Gabi-Sud	Foret Classee de Gabi-Sud	GABISUD FORETCLASSEEDE	Gabi-Sud, Forêt Classée de	Gabi-Sud, Foret Classee de		2008-02-19	1,2,3,4,5	1			1993-09-01		
1	-1083278	-1606808	13.35401	8.915434	13:21:14N	8:54:56E	32PMV9084376286	ND32-10	L	RESP		NG	07				N			Rôneraie	RONERAIEDEKORAMA	Rôneraie de K'ôrama	Roneraie de K'orama	KORAMA RONERAIEDE	K'ôrama, Rôneraie de	K'orama, Roneraie de		2008-04-04	1,2,3,4,5	1			2008-04-04		
1	10124791	10365811	13.920889	8.427934	13:55:15N	8:25:41E	32PMA3820039051	ND32-10	L	LCTY		NG	04				N				MAYGAGUIWA	May ga Guiwa	May ga Guiwa	MAYGAGUIWA	May ga Guiwa	May ga Guiwa		2008-02-27	1,2,3,4	1			2008-02-27		
1	10122912	10362847	13.792836	8.1105	13:47:34N	8:06:38E	32PMA0385324993	ND32-10	L	LCTY		NG	04				N				BAYWAKAMOUNASSOFA	Baywa Kamoun Assofa	Baywa Kamoun Assofa	BAYWAKAMOUNASSOFA	Baywa Kamoun Assofa	Baywa Kamoun Assofa		2008-04-04	1,2,3,4	1			2008-02-27		
3	-1085937	-1610854	13.588656	7.658884	13:35:19N	7:39:32E	32PLA5490602633	ND32-10	L	LCTY		NG	04				V				TAPKINDANBADE	Tapkin Dan Badé	Tapkin Dan Bade	TAPKINDANBADE	Tapkin Dan Badé	Tapkin Dan Bade		2008-02-27	1,2,3,4,5				1993-09-01		
1	-1085937	-1610330	13.588656	7.658884	13:35:19N	7:39:32E	32PLA5490602633	ND32-10	L	LCTY		NG	04				N				TABKINDANBADE	Tabkin Dan Badé	Tabkin Dan Bade	TABKINDANBADE	Tabkin Dan Badé	Tabkin Dan Bade		2008-02-27	1,2,3,4,5	1			2008-02-27		
3	-1083913	-1607670	13.219489	7.436927	13:13:10N	7:26:13E	32PLV3062961937	ND32-09	L	LCTY		NG	04				N				MADAOURARI	Madaourari	Madaourari	MADAOURARI	Madaourari	Madaourari		2008-02-25	1,2,3,4,5	1			1993-09-01		
1	-1079386	-1601415	13.487897	7.6198	13:29:16N	7:37:11E	32PLV5061491511	ND32-10	L	RESF		NG	04				V				FORETCLASSEEDEDANKADADODO	Forêt Classée de Dankada Dodo	Foret Classee de Dankada Dodo	DANKADADODO FORETCLASSEEDE	Dankada Dodo, Forêt Classée de	Dankada Dodo, Foret Classee de		2008-02-27	1,2,3,4,5				2008-02-27		
1	-1079386	10364038	13.487897	7.6198	13:29:16N	7:37:11E	32PLV5061491511	ND32-10	L	RESF		NG	04				N			Forêt Classée	FORETCLASSEEDEDANGADO	Forêt Classée de Dan Gâdo	Foret Classee de Dan Gado	DANGADO FORETCLASSEEDE	Dan Gâdo, Forêt Classée de	Dan Gado, Foret Classee de		2008-02-27	1,2,3,4,5	1			2008-02-27		
1	10120203	10358747	13.313407	8.319144	13:18:48N	8:19:09E	32PMV2625971896	ND32-10	L	LCTY		NG	04				N				YAOURAWA	Yaourawa	Yaourawa	YAOURAWA	Yaourawa	Yaourawa		2008-04-04	1,2,3,4	1			2008-02-26		
1	10130523	10376439	13.447385	8.29493	13:26:51N	8:17:42E	32PMV2367986720	ND32-10	L	LCTY		NG	04				N				MOUSSOUROUM	Moussouroum	Moussouroum	MOUSSOUROUM	Moussouroum	Moussouroum		2008-04-04	1,2,3,4	1			2008-03-04		
1	10119926	10358304	13.783454	8.263991	13:47:00N	8:15:50E	32PMA2044223899	ND32-10	L	LCTY		NG	04				N				KOUFANMAYDANIA	Koufan May Dania	Koufan May Dania	KOUFANMAYDANIA	Koufan May Dania	Koufan May Dania		2008-02-26	1,2,3,4	1			2008-02-26		
1	-1082280	-1605429	16.314028	13.233632	16:18:51N	13:14:01E	33QUU1128604489	NE33-13	L	RGN		NG	02				N				INMADAMA	I-n-Madama	I-n-Madama	INMADAMA	I-n-Madama	I-n-Madama		2008-03-05	1,2,3,4,5	1			2008-03-05		
1	10129893	10375556	13.542831	8.079014	13:32:34N	8:04:44E	32PMV0034597354	ND32-10	L	LCTY		NG	04				N				TOUMBI	Toumbî	Toumbi	TOUMBI	Toumbî	Toumbi		2008-04-04	1,2,3,4	1			2008-03-26		
1	10129861	10375495	13.627391	8.206547	13:37:39N	8:12:24E	32PMA1417606658	ND32-10	L	LCTY		NG	04				N				MAJA	Maja	Maja	MAJA	Maja	Maja		2008-04-04	1,2,3,4	1			2008-03-03		
1	10129865	10375499	13.571382	8.195678	13:34:17N	8:11:44E	32PMA1298000467	ND32-10	L	LCTY		NG	04				N				RANKACHE	Rankache	Rankache	RANKACHE	Rankache	Rankache		2008-04-04	1,2,3,4	1			2008-03-03		
1	10124816	10365850	13.869963	8.422273	13:52:12N	8:25:20E	32PMA3757533420	ND32-10	L	LCTY		NG	04				N				GOBORO	Goboro	Goboro	GOBORO	Goboro	Goboro		2008-02-27	1,2,3,4	1			2008-02-27		
1	10121949	10361598	13.851595	8.24761	13:51:06N	8:14:51E	32PMA1869531441	ND32-10	L	LCTY		NG	04				N				YAWAYAWA	Yawa Yawa	Yawa Yawa	YAWAYAWA	Yawa Yawa	Yawa Yawa		2008-02-27	1,2,3,4	1			2008-02-27		
1	10121950	10361600	13.972759	8.099241	13:58:22N	8:05:57E	32PMA0271144898	ND32-10	L	LCTY		NG	04				N				MAYKASSAMBIMI	May Kassambimi	May Kassambimi	MAYKASSAMBIMI	May Kassambimi	May Kassambimi		2008-02-27	1,2,3,4	1			2008-02-27		
1	10115426	10348387	15.094443	10.781461	15:05:40N	10:46:53E	32PPB9146369547	ND32-04	L	LCTY		NG	07				N				NGUELCHOWAY	Nguèl Choway	Nguel Choway	NGUELCHOWAY	Nguèl Choway	Nguel Choway		2008-03-12	1,2,3,4	1			2008-02-21		
1	10131497	10377515	13.375156	8.256891	13:22:31N	8:15:25E	32PMV1953778744	ND32-10	L	LCTY		NG	04				N				DANJA	Dan Ja	Dan Ja	DANJA	Dan Ja	Dan Ja		2008-04-04	1,2,3,4	1			2008-03-04		
1	10129868	10375502	13.521285	8.236046	13:31:17N	8:14:10E	32PMV1733094913	ND32-10	L	LCTY		NG	04				N				BIRJIBOKOY	Birjî Bokoy	Birji Bokoy	BIRJIBOKOY	Birjî Bokoy	Birji Bokoy		2008-04-04	1,2,3,4	1			2008-03-03		
1	10130862	10376805	13.500854	8.068169	13:30:03N	8:04:05E	32PLV9915392716	ND32-10	L	LCTY		NG	04				N				GARARA	Garara	Garara	GARARA	Garara	Garara		2008-04-04	1,2,3,4	1			2008-03-04		
1	10132267	10379104	16.859468	13.258594	16:51:34N	13:15:31E	33QUU1447864827	NE33-13	L	LCTY		NG	02				N				GALEDJAMSALAL	Galedjam Salal	Galedjam Salal	GALEDJAMSALAL	Galedjam Salal	Galedjam Salal		2008-03-05	1,2,3,4	1			2008-03-05		
3	10139717	10400612	13.082715	8.557358	13:04:58N	8:33:26E	32PMV5201546325	ND32-10	L	RESF		NG	07				N			Fôret Classé	FORETCLASSEDEDAWANGOMA	Fôret Classé de Dawan Gōma	Foret Classe de Dawan Goma	DAWANGOMA FORETCLASSEDE	Dawan Gōma, Fôret Classé de	Dawan Goma, Foret Classe de		2008-04-03	1,2,3,4	1			2008-04-03		
1	10122272	10362013	13.819818	8.047346	13:49:11N	8:02:50E	32PLA9703828004	ND32-10	L	LCTY		NG	04				N				WAZODA	Wazoda	Wazoda	WAZODA	Wazoda	Wazoda		2008-02-27	1,2,3,4	1			2008-02-27		
1	10122060	10361711	13.882686	8.129418	13:52:58N	8:07:46E	32PMA0593434923	ND32-10	L	LCTY		NG	04				N				MAYMARKE	May Marké	May Marke	MAYMARKE	May Marké	May Marke		2008-02-27	1,2,3,4	1			2008-02-27		
1	10140795	10402467	13.655178	8.332228	13:39:19N	8:19:56E	32PMA2777909691	ND32-10	L	LCTY		NG	07				N				SAKOTA	Sakota	Sakota	SAKOTA	Sakota	Sakota		2008-04-03	1,2,3,4	1			2008-03-19		
1	10141363	10403176	13.739324	8.480634	13:44:22N	8:28:50E	32PMA4385018958	ND32-10	L	LCTY		NG	07				N				MAYTIGLALA	May Tiglala	May Tiglala	MAYTIGLALA	May Tiglala	May Tiglala		2008-04-03	1,2,3,4	1			2008-03-20		
1	10141368	10403182	13.696411	8.469419	13:41:47N	8:28:10E	32PMA4262714214	ND32-10	L	LCTY		NG	07				N				RANRAMA	Ranrama	Ranrama	RANRAMA	Ranrama	Ranrama		2008-04-03	1,2,3,4	1			2008-03-20		
1	10141382	10403222	13.578376	8.463422	13:34:42N	8:27:48E	32PMA4195001161	ND32-10	L	LCTY		NG	07				N				JAKARA	Ja-Kara	Ja-Kara	JAKARA	Ja-Kara	Ja-Kara		2008-04-03	1,2,3,4	1			2008-03-20		
1	10142701	10405008	13.652674	8.494237	13:39:10N	8:29:39E	32PMA4530109371	ND32-10	L	LCTY		NG	07				N				MAGARIA	Magaria	Magaria	MAGARIA	Magaria	Magaria		2008-04-03	1,2,3,4	1			2008-03-21		
1	10145697	10408676	13.676744	8.816508	13:40:36N	8:48:59E	32PMA8015711984	ND32-10	L	LCTY		NG	07				N				MAYKILAGO	May Kilago	May Kilago	MAYKILAGO	May Kilago	May Kilago		2008-04-03	1,2,3,4	1			2008-03-24		
3	-1085646	-1609939	14.68712	11.958191	14:41:14N	11:57:29E	32PRB1861025807	ND32-08	L	LCTY		NG	07				N				SEFOUWA	Séfouwa	Sefouwa	SEFOUWA	Séfouwa	Sefouwa		2008-04-09	1,2,3,4,5	1			1993-09-01		
1	10166834	10451194	13.331154	10.230058	13:19:52N	10:13:48E	32PPV3321974087	ND32-11	L	RESF		NG	07				N			Forêt classée	FORETCLASSEEDEKADARA	Forêt classée de Kadara	Foret classee de Kadara	KADARA FORETCLASSEEDE	Kadara, Forêt classée de	Kadara, Foret classee de		2008-04-10	1,2,3,4	1			2008-04-10		
3	10217693	10533615	13.600617	11.615114	13:36:02N	11:36:54E	32PQA8297705077	ND32-12	L	RESF		NG	02				N			Forêt Classée	FORETCLASSEEDEMBO	Forêt Classée de Mbo	Foret Classee de Mbo	MBO FORETCLASSEEDE	Mbo, Forêt Classée de	Mbo, Foret Classee de		2008-07-01	1,2,3,4	1			2008-07-01		
3	-1086870	-1611770	16.149075	12.369467	16:08:57N	12:22:10E	33QTT1868187222	NE33-13	L	RGN		NG	02				N				TINTOUMMA	Ti-n-Toumma	Ti-n-Toumma	TINTOUMMA	Ti-n-Toumma	Ti-n-Toumma		2008-04-11	1,2,3,4,5,6,7,8,9	1			1993-09-01		
3	-1080598	-1603076	14.624013	11.009765	14:37:26N	11:00:35E	32PQB1647717700	ND32-08	L	LCTY		NG	07				N				GAKOLE	Gakolé	Gakole	GAKOLE	Gakolé	Gakole		2008-04-09	1,2,3,4,5	1			1993-09-01		
3	10217430	10533020	13.732975	11.601341	13:43:59N	11:36:05E	32PQA8132919712	ND32-12	L	RESF		NG	02				N			Forêt Classée	FORETCLASSEEDEARIBOUNDERAM	Forêt Classée de Ari Boundéram	Foret Classee de Ari Bounderam	ARIBOUNDERAM FORETCLASSEEDE	Ari Boundéram, Forêt Classée de	Ari Bounderam, Foret Classee de		2008-06-30	1,2,3,4	1			2008-06-30		
1	10166888	10451248	13.449645	10.460576	13:26:59N	10:27:38E	32PPV5811287330	ND32-11	L	RESF		NG	07				N			Forêt classée	FORETCLASSEEDEKARGERI	Forêt classée de Kargéri	Foret classee de Kargeri	KARGERI FORETCLASSEEDE	Kargéri, Forêt classée de	Kargeri, Foret classee de		2008-04-10	1,2,3,4	1			2008-04-10		
1	10167133	10451493	13.758974	10.821969	13:45:32N	10:49:19E	32PPA9698921815	ND32-12	L	RESF		NG	07				N			Forêt classée	FORETCLASSEEDESISI	Forêt classée de Sisi	Foret classee de Sisi	SISI FORETCLASSEEDE	Sisi, Forêt classée de	Sisi, Foret classee de		2008-04-10	1,2,3,4	1			2008-04-10		
1	10207407	10517749	15.706596	12.831414	15:42:24N	12:49:53E	33PTT6759637672	ND33-01	L	LCTY		NG	02				N				MAHATENGOUJA	Mahaten Gouja	Mahaten Gouja	MAHATENGOUJA	Mahaten Gouja	Mahaten Gouja		2008-06-17	1,2,3,4	1			2008-06-17		
1	10207409	10517751	15.624196	12.739477	15:37:27N	12:44:22E	33PTT5764228655	ND33-01	L	LCTY		NG	02				N				MABROUKAKALKIER	Mabrouka Kalkièr	Mabrouka Kalkier	MABROUKAKALKIER	Mabrouka Kalkièr	Mabrouka Kalkier		2008-06-17	1,2,3,4	1			2008-06-17		
1	10207457	10517799	15.313992	12.633347	15:18:50N	12:38:00E	33PTS4588094442	ND33-01	L	LCTY		NG	02				N				MARADOA	Maradoa	Maradoa	MARADOA	Maradoa	Maradoa		2008-06-17	1,2,3,4	1			2008-06-17		
3	10204433	10513840	13.853339	12.773585	13:51:12N	12:46:25E	33PTR5936232626	ND33-09	L	LCTY		NG	02				N				SASA	Sasa	Sasa	SASA	Sasa	Sasa		2008-06-05	1,2,3,4	1			2008-06-05		
3	10205434	10515240	13.375229	12.197929	13:22:31N	12:11:53E	33PSQ9649480349	ND33-09	L	LCTY		NG	02				N				KOME	Komé	Kome	KOME	Komé	Kome		2008-06-18	1,2,3,4	1			2008-06-10		
1	10207390	10517732	15.90151	12.775322	15:54:05N	12:46:31E	33PTT6181159308	ND33-01	L	LCTY		NG	02				N				LAHAOUJ	Lahaouj	Lahaouj	LAHAOUJ	Lahaouj	Lahaouj		2008-06-17	1,2,3,4	1			2008-06-17		
1	10207392	10517734	15.837203	12.79767	15:50:14N	12:47:52E	33PTT6413052165	ND33-01	L	LCTY		NG	02				N				BOUIJLIJA	Bou Ijlija	Bou Ijlija	BOUIJLIJA	Bou Ijlija	Bou Ijlija		2008-06-17	1,2,3,4	1			2008-06-17		
3	10207695	10518348	14.145224	12.213134	14:08:43N	12:12:47E	33PSR9912965577	ND33-05	L	LCTY		NG	02				N				NGUELMADOUKA	Nguèl Madouka	Nguel Madouka	NGUELMADOUKA	Nguèl Madouka	Nguel Madouka		2008-06-17	1,2,3,4	1			2008-06-17		
3	10207696	10518349	14.129506	12.167758	14:07:46N	12:10:04E	33PSR9420663895	ND33-05	L	LCTY		NG	02				N				NGUELPOUCHOU	Nguèl Pouchou	Nguel Pouchou	NGUELPOUCHOU	Nguèl Pouchou	Nguel Pouchou		2008-06-27	1,2,3,4	1			2008-06-17		
3	10205931	10515853	13.110073	12.152754	13:06:36N	12:09:10E	33PSQ9126351049	ND33-09	L	LCTY		NG	02				N				BOURARI	Bourari	Bourari	BOURARI	Bourari	Bourari		2008-06-18	1,2,3,4	1			2008-06-11		
1	10207463	10517805	15.205918	12.746801	15:12:21N	12:44:48E	33PTS5794382350	ND33-01	L	LCTY		NG	02				N				ACHIGORE	Achigoré	Achigore	ACHIGORE	Achigoré	Achigore		2008-06-17	1,2,3,4	1			2008-06-17		
1	10207420	10517762	15.477823	12.917488	15:28:40N	12:55:03E	33PTT7657712260	ND33-01	L	LCTY		NG	02				N				KALKIOUADIRADIJA	Kalki Ouadi Radija	Kalki Ouadi Radija	KALKIOUADIRADIJA	Kalki Ouadi Radija	Kalki Ouadi Radija		2008-06-17	1,2,3,4	1			2008-06-17		
1	10207422	10517764	15.502764	12.847557	15:30:10N	12:50:51E	33PTT6909915095	ND33-01	L	LCTY		NG	02				N				SOUAKEY	Souakèy	Souakey	SOUAKEY	Souakèy	Souakey		2008-06-17	1,2,3,4	1			2008-06-17		
1	10207423	10517765	15.425987	12.877143	15:25:34N	12:52:38E	33PTT7219006566	ND33-01	L	LCTY		NG	02				N				LEBOUS	Lébous	Lebous	LEBOUS	Lébous	Lebous		2008-06-17	1,2,3,4	1			2008-06-17		
1	10207425	10517767	15.366081	12.872253	15:21:58N	12:52:20E	33PTS7160099941	ND33-01	L	LCTY		NG	02				N				KAMANFOULGOU	Kamanfoulgou	Kamanfoulgou	KAMANFOULGOU	Kamanfoulgou	Kamanfoulgou		2008-06-17	1,2,3,4	1			2008-06-17		
3	10208558	10519767	14.242051	12.256847	14:14:31N	12:15:25E	33PTR0397776241	ND33-05	L	LCTY		NG	02				N				DINE	Diné	Dine	DINE	Diné	Dine		2008-06-27	1,2,3,4	1			2008-06-18		
3	10207318	10517612	14.570145	12.052511	14:34:13N	12:03:09E	33PSS8237612840	ND33-05	L	LCTY		NG	02				N				NGUELSADNE	Nguèl Sadné	Nguel Sadne	NGUELSADNE	Nguèl Sadné	Nguel Sadne		2008-06-27	1,2,3,4	1			2008-06-16		
3	10207337	10517633	14.658629	12.024113	14:39:31N	12:01:27E	33PSS7944122677	ND33-05	L	LCTY		NG	02				N				FAYAOUANGUELDOUDOUA	Fayaoua Nguèl Doudoua	Fayaoua Nguel Doudoua	FAYAOUANGUELDOUDOUA	Fayaoua Nguèl Doudoua	Fayaoua Nguel Doudoua		2008-06-16	1,2,3,4	1			2008-06-16		
3	10212278	10525486	14.120803	12.645359	14:07:15N	12:38:43E	33PTR4579062361	ND33-05	L	LCTY		NG	02				N				NGAMINDEGOU	Nga Mindégou	Nga Mindegou	NGAMINDEGOU	Nga Mindégou	Nga Mindegou		2008-06-27	1,2,3,4	1			2008-06-23		
1	10207359	10517700	14.751494	12.169921	14:45:05N	12:10:12E	33PSS9528832758	ND33-05	L	LCTY		NG	02				N				LOUGUEREBAHILE	Louguéré Bahilé	Louguere Bahile	LOUGUEREBAHILE	Louguéré Bahilé	Louguere Bahile		2008-06-16	1,2,3,4	1			2008-06-24		
3	10208948	10520213	14.405841	12.386333	14:24:21N	12:23:11E	33PTR1816494211	ND33-05	L	LCTY		NG	02				N				GOURNI	Gourni	Gourni	GOURNI	Gourni	Gourni		2008-06-27	1,2,3,4	1			2008-06-19		
1	10207454	10517796	15.201272	12.57856	15:12:05N	12:34:43E	33PTS3985582030	ND33-01	L	LCTY		NG	02				N				OURSAMONTOU	Oursamontou	Oursamontou	OURSAMONTOU	Oursamontou	Oursamontou		2008-06-17	1,2,3,4	1			2008-06-17		
3	10208564	10519774	14.430973	12.26157	14:25:52N	12:15:42E	33PTR0473597150	ND33-05	L	LCTY		NG	02				N				BOUDINGA	Boudinga	Boudinga	BOUDINGA	Boudinga	Boudinga		2008-06-27	1,2,3,4	1			2008-06-18		
1	10207433	10517775	15.396645	12.657555	15:23:48N	12:39:27E	33PTT4857903563	ND33-01	L	LCTY		NG	02				N				TARAJIBOU	Tarajibou	Tarajibou	TARAJIBOU	Tarajibou	Tarajibou		2008-06-17	1,2,3,4	1			2008-06-17		
3	10207268	10517558	14.043746	12.053443	14:02:37N	12:03:12E	33PSR8173554552	ND33-05	L	LCTY		NG	02				N				NGUELADOUAJE	Nguèl Adouajé	Nguel Adouaje	NGUELADOUAJE	Nguèl Adouajé	Nguel Adouaje		2008-06-27	1,2,3,4	1			2008-06-16		
3	10207365	10517706	14.649295	12.224558	14:38:57N	12:13:28E	33PTS0103621369	ND33-05	L	LCTY		NG	02				N				NIDIGAOUA	Nidigaoua	Nidigaoua	NIDIGAOUA	Nidigaoua	Nidigaoua		2008-06-27	1,2,3,4	1			2008-06-16		
3	10207344	10517685	14.886427	12.051014	14:53:11N	12:03:04E	33PSS8267347864	ND33-05	L	LCTY		NG	02				N				GAFAO	Gafao	Gafao	GAFAO	Gafao	Gafao		2008-06-16	1,2,3,4	1			2008-06-16		
3	10208955	10520221	14.275303	12.34922	14:16:31N	12:20:57E	33PTR1399479806	ND33-05	L	LCTY		NG	02				N				TELERE	Téléré	Telere	TELERE	Téléré	Telere		2008-06-27	1,2,3,4	1			2008-06-19		
1	10207502	10517844	15.402207	12.710358	15:24:08N	12:42:37E	33PTT5425604117	ND33-01	L	LCTY		NG	02				N				KALKI	Kalki	Kalki	KALKI	Kalki	Kalki		2008-06-17	1,2,3,4	1			2008-06-17		
3	10204560	10514007	13.668603	12.606982	13:40:07N	12:36:25E	33PTR4114312354	ND33-09	L	LCTY		NG	02				N				GOUDOUMBARI	Goudoumbari	Goudoumbari	GOUDOUMBARI	Goudoumbari	Goudoumbari		2008-06-18	1,2,3,4	1			2008-06-09		
3	10204563	10514010	13.621031	12.711456	13:37:16N	12:42:41E	33PTR5240006980	ND33-09	L	AREA		NG	02				N				KASATCHIA	Kasatchia	Kasatchia	KASATCHIA	Kasatchia	Kasatchia		2008-06-09	1,2,3,4	1			2008-06-09		
3	10205161	10514935	13.493094	12.832224	13:29:35N	12:49:56E	33PTQ6534692702	ND33-09	L	LCTY		NG	02				N				OULA	Oula	Oula	OULA	Oula	Oula		2008-06-18	1,2,3,4	1			2008-06-10		
3	10204412	10513819	13.990289	12.535379	13:59:25N	12:32:07E	33PTR3375948037	ND33-09	L	LCTY		NG	02				N				NGELDYABI	Ngel Dyabi	Ngel Dyabi	NGELDYABI	Ngel Dyabi	Ngel Dyabi		2008-06-05	1,2,3,4	1			2008-06-05		
3	10204447	10513871	13.761649	12.885572	13:45:42N	12:53:08E	33PTR7138222370	ND33-09	L	LCTY		NG	02				N				NGIKIMA	Ngikima	Ngikima	NGIKIMA	Ngikima	Ngikima		2008-06-06	1,2,3,4	1			2008-06-06		
3	10204452	10513876	13.710089	12.714558	13:42:36N	12:42:52E	33PTR5282916833	ND33-09	L	LCTY		NG	02				N				NAMALDE	Namaldé	Namalde	NAMALDE	Namaldé	Namalde		2008-06-06	1,2,3,4	1			2008-06-06		
3	10205834	10515754	13.324676	12.700717	13:19:29N	12:42:03E	33PTQ5093174193	ND33-09	L	LCTY		NG	02				N				IAWRA	Iawra	Iawra	IAWRA	Iawra	Iawra		2008-06-18	1,2,3,4	1			2008-06-10		
3	10205905	10515825	13.222305	12.200523	13:13:20N	12:12:02E	33PSQ9658563416	ND33-09	L	LCTY		NG	02				N				MASEWADJI	Mase Wadji	Mase Wadji	MASEWADJI	Mase Wadji	Mase Wadji		2008-06-18	1,2,3,4	1			2008-06-10		
3	10205907	10515827	13.345173	12.138962	13:20:43N	12:08:20E	33PSQ9006477095	ND33-09	L	LCTY		NG	02				N				SEOUNDOU	Seoundou	Seoundou	SEOUNDOU	Seoundou	Seoundou		2008-06-18	1,2,3,4	1			2008-06-10		
